stop_id,stop_name,stop_lat,stop_lon,location_type
1,"LUGONES, LEOPOLDO AV.",-34.5356345225,-58.4623079147,0
3,"LUGONES, LEOPOLDO AV.",-34.5377998036,-58.4594436345,0
15,"LA PAMPA&&OBLIGADO RAFAEL, AV.COSTANERA",-34.5512838504,-58.4284824854,0
16,"OBLIGADO RAFAEL, AV.COSTANERA",-34.551970775,-58.4269039203,0
17,"OBLIGADO RAFAEL, AV.COSTANERA",-34.5522984052,-58.426026146,0
18,"OBLIGADO RAFAEL, AV.COSTANERA",-34.5531266677,-58.4235813045,0
19,"OBLIGADO RAFAEL, AV.COSTANERA",-34.556073854,-58.4137710275,0
20,"OBLIGADO RAFAEL, AV.COSTANERA",-34.5577324117,-58.411230357,0
23,"OBLIGADO RAFAEL, AV.COSTANERA",-34.5588220454,-58.4098376667,0
26,"3 DE FEBRERO&&JURAMENTO AV.",-34.5593296534,-58.452063224,0
32,"DONADO&&MERCADER, EMIR",-34.5618130544,-58.4839618074,0
33,"LORETO, VIRREY&&SOLDADO DE LA INDEPENDENCIA",-34.5623392917,-58.4428084002,0
35,"DEL LIBERTADOR AV.",-34.562439092,-58.4408594922,0
38,"BELLO, ANDRES&&FIGUEROA ALCORTA, PRES. AV.",-34.5626788553,-58.4233706726,0
39,"FIGUEROA ALCORTA, PRES. AV.&&NOBLE, JULIO ARGENTIN",-34.5620173243,-58.4239046433,0
40,"FIGUEROA ALCORTA, PRES. AV.&&PINEDO, INT.",-34.5640369406,-58.422602254,0
48,"COLOMBIA AV.&&SARMIENTO AV.",-34.577349401,-58.417270417,0
49,"CABELLO&&ZAZPE, VICENTE FAUSTINO MONSEÑOR",-34.5810031933,-58.4098198919,0
53,"ALVAREZ THOMAS AV.&&NEWBERY, JORGE AV.",-34.5814578896,-58.4484607092,0
61,"CALLAO AV.&&DEL LIBERTADOR AV.",-34.5865882532,-58.3858492913,0
66,"ANTARTIDA ARGENTINA AV.&&PERETTE, CARLOS H.",-34.5860519636,-58.372384952,0
68,"CHORROARIN AV.&&COMBATIENTES DE MALVINAS AV.",-34.5873836653,-58.4708532218,0
76,"DE LOS CONSTITUYENTES AV.&&VIRREYES",-34.5914686535,-58.4767282475,0
81,"HABANA&&SAN MARTIN AV.",-34.5934412311,-58.5062565889,0
102,"PUEYRREDON, HONORIO, DR. AV.&&WARNES AV.",-34.5984082824,-58.453688411,0
107,"JUSTO, JUAN B. AV.&&MARTINEZ ROSAS",-34.5985707441,-58.4498952218,0
112,"MOSCONI GENERAL AV.&&PAZ, GRAL. AV.",-34.5988566405,-58.5226265265,0
128,"ANTEZANA&&WARNES AV.",-34.6026657048,-58.441398348,0
129,"ARAOZ&&WARNES AV.",-34.6026310714,-58.4414823321,0
130,"GUTIERREZ, RICARDO&&PAZ, GRAL. AV.",-34.6028825398,-58.524494475,0
138,"AMBROSETTI, JUAN B.&&MARECHAL, LEOPOLDO",-34.6063544064,-58.4387317772,0
139,"LILLO AV.&&MARECHAL, LEOPOLDO",-34.6067354089,-58.4384384192,0
144,"DEALESSI, PIERINA&&VILLAFLOR, AZUCENA",-34.6119662346,-58.3637018895,0
166,"MARTINEZ, JUAN ESTEBAN&&NOGOYA",-34.6201360067,-58.5182932134,0
170,"LAVAYSSE, BENJAMIN J. (EX CORREA, BENITO) (NO OFIC",-34.6210689326,-58.3592904695,0
173,"ESPAÑA AV.",-34.6206972339,-58.3549171546,0
175,"JUSTO, JUAN B. AV.&&LAMARCA, EMILIO",-34.6228682876,-58.4818800244,0
176,"JUSTO, JUAN B. AV.&&SAN NICOLAS",-34.6234733857,-58.4826538427,0
179,"GONZALEZ, JOAQUIN V.&&JUSTO, JUAN B. AV.",-34.6240812959,-58.4834259691,0
186,"CAFFARENA, AGUSTIN R.&&DON PEDRO DE MENDOZA AV.",-34.6286514994,-58.3559800848,0
195,"DEFENSA&&GARCIA, MARTIN AV.",-34.6294922748,-58.3706622359,0
200,"JUSTO, JUAN B. AV.",-34.6315804898,-58.4994785445,0
201,"BRANDSEN&&DON PEDRO DE MENDOZA AV.",-34.6321082688,-58.3534987734,0
205,"CONCORDIA&&RIVADAVIA AV.",-34.6323156597,-58.4756545191,0
206,"LAMARCA, EMILIO&&RIVADAVIA AV.",-34.6325801242,-58.4767483299,0
208,"JUSTO, JUAN B. AV.&&LOPE DE VEGA",-34.6323635712,-58.5004988719,0
209,"BARADERO&&RIVADAVIA AV.",-34.6328450012,-58.4778439369,0
210,"ENSENADA&&RIVADAVIA AV.",-34.6331075455,-58.4789300934,0
212,"PERON, EVA AV.&&PRIMERA JUNTA",-34.6331512029,-58.4450948572,0
216,"BAHIA BLANCA&&RIVADAVIA AV.",-34.6334551731,-58.4803683155,0
217,"CHIVILCOY&&RIVADAVIA AV.",-34.6337792771,-58.4817092469,0
219,"FRAGUEIRO&&JUSTO, JUAN B. AV.",-34.6344698568,-58.5242979322,0
223,"JUSTO, JUAN B. AV.&&PAZ, GRAL. AV.",-34.6345439855,-58.5288301986,0
234,"DON PEDRO DE MENDOZA AV.&&RODRIGUEZ, MARTIN",-34.6389471489,-58.3584784806,0
235,"DON PEDRO DE MENDOZA AV.&&PALOS",-34.6389812385,-58.3603025802,0
236,"PAZ, GRAL. AV.&&RIVADAVIA AV.",-34.6393431332,-58.5287950345,0
245,"DON PEDRO DE MENDOZA AV.&&QUINQUELA MARTIN, BENITO",-34.6409488764,-58.3610746746,0
251,"DELLEPIANE, LUIS, TTE. GRAL.&&PERON, EVA AV.",-34.6440419572,-58.4631074261,0
259,"AUSTRALIA AV.&&PINEDO AV.",-34.6454245331,-58.3811841075,0
267,"ALCORTA, AMANCIO AV.",-34.6463075663,-58.4021633663,0
292,"CHAVEZ, JORGE&&PAZ, GRAL. AV.",-34.6501573656,-58.5284161466,0
293,"CHAVEZ, JORGE&&PAZ, GRAL. AV.",-34.6501499376,-58.5293287307,0
295,"MORENO, PERITO AV.&&SANTANDER",-34.6502061429,-58.4612448457,0
297,"ACOSTA, MARIANO&&MORENO, PERITO AV.",-34.6501563626,-58.4618598504,0
319,"PAZ, GRAL. AV.",-34.6566410718,-58.5253684359,0
320,"PAZ, GRAL. AV.",-34.6545046479,-58.5278321155,0
326,"ALBERDI, JUAN BAUTISTA AV.&&CARHUE",-34.6590353066,-58.5123223781,0
333,"MOZART&&SARAZA",-34.6605701725,-58.4674451706,0
336,"PAZ, GRAL. AV.",-34.6605059616,-58.5201788876,0
337,"PAZ, GRAL. AV.",-34.6582834317,-58.5231321862,0
348,"ARGENTINA AV.&&ZELARRAYAN",-34.672794979,-58.4779544817,0
349,"PAZ, GRAL. AV.",-34.6726194477,-58.5041108583,0
350,"PAZ, GRAL. AV.",-34.6709311036,-58.5063096704,0
354,"PAZ, GRAL. AV.&&SCAPINO, RODOLFO",-34.6767497428,-58.4979778633,0
355,"PAZ, GRAL. AV.",-34.6824374877,-58.4911502189,0
356,"PAZ, GRAL. AV.",-34.6783911953,-58.4964822522,0
361,"BERGANTIN GENERAL BALCARCE&&CAFAYATE",-34.6845876608,-58.4689466994,0
370,"PAZ, GRAL. AV.",-34.6941341258,-58.4756283107,0
382,"GALILEO&&LAS HERAS GENERAL AV.",-34.5859153575,-58.3989469681,0
395,"DE LA TORRE, LISANDRO AV.&&PUPILLO, LIBORIO, PASEO",-34.6624249942,-58.5003295376,0
401,"BASUALDO&&GARZON, EUGENIO, GRAL. AV.",-34.6532032723,-58.4879390861,0
404,"CORVALAN&&GARZON, EUGENIO, GRAL. AV.",-34.6545424332,-58.4895121984,0
405,"ALBARIÑO&&GARZON, EUGENIO, GRAL. AV.",-34.6552121187,-58.4902964108,0
406,"GARZON, EUGENIO, GRAL. AV.&&MIRALLA",-34.6558811113,-58.4910801326,0
465,"DE LOS INCAS AV.&&ESTOMBA",-34.576440359,-58.4658855515,0
471,"CORREGIDORES&&DE LOS INCAS AV.",-34.5720085707,-58.4602623425,0
473,"DE LOS INCAS AV.&&ZAPIOLA",-34.5705808203,-58.4587948427,0
475,"DEL LIBERTADOR AV.&&OLLEROS AV.",-34.5635606792,-58.436645909,0
512,"ASTURIAS AV.&&SANTIAGO DE COMPOSTELA AV.",-34.6572362808,-58.467350062,0
513,"MOZART&&SANTIAGO DE COMPOSTELA AV.",-34.6591036957,-58.4695556582,0
514,"ESCALADA AV.&&SARAZA",-34.6636519251,-58.4696413027,0
516,"AUTOPISTA DELLEPIANE LUIS TTE. GRAL.&&ESCALADA AV.",-34.663155224,-58.4720261975,0
522,"ESCALADA AV.&&FERNANDEZ DE LA CRUZ, F., GRAL. AV.",-34.6726630135,-58.4590584757,0
523,"ESCALADA AV.",-34.6697635294,-58.4628927797,0
526,"FERNANDEZ DE LA CRUZ, F., GRAL. AV.",-34.6670052869,-58.4519081731,0
529,"FERNANDEZ DE LA CRUZ, F., GRAL. AV.",-34.6724792501,-58.4580576427,0
530,"ESCALADA AV.&&FERNANDEZ DE LA CRUZ, F., GRAL. AV.",-34.67315219,-58.4583636596,0
533,"ESCALADA AV.&&ROCA, CNEL. AV.",-34.6795893037,-58.4503033088,0
535,"CHORROARIN AV.&&COMBATIENTES DE MALVINAS AV.",-34.5869844573,-58.4707855091,0
548,"JUSTO, JUAN B. AV.&&VIRGILIO",-34.6329248429,-58.5018644255,0
549,"DEL LIBERTADOR AV.&&SOLDADO DE LA INDEPENDENCIA",-34.5617183157,-58.4433711046,0
566,"AEROLINEAS ARGENTINAS&&OBLIGADO RAFAEL, AV.COSTANE",-34.5549669699,-58.4165424811,0
580,"SIN NOMBRE OFICIAL (ALT. AV RAFAEL OBLIGADO 1170)",-34.5742150102,-58.3895117661,0
587,"ANTARTIDA ARGENTINA AV.&&RAMOS MEJIA, JOSE MARIA, ",-34.5892170167,-58.3710117664,0
601,"NAZCA",-34.5758904305,-58.5117949768,0
617,"PAZ, GRAL. AV.",-34.5741151442,-58.5109567505,0
620,"CANTILO, INT.&&PAZ, GRAL. AV.",-34.5342807585,-58.4631612907,0
622,"PAZ, GRAL. AV.",-34.5347672247,-58.4657955052,0
628,"DEL LIBERTADOR AV.&&PAZ, GRAL. AV.",-34.535842721,-58.4668076234,0
633,"COLECTORA CANTILO, INT.",-34.5369282274,-58.4593096416,0
636,"DEHEZA&&DEL LIBERTADOR AV.",-34.5374891264,-58.4658086068,0
640,"CUBA&&PAZ, GRAL. AV.",-34.5383609591,-58.4731673919,0
645,"ARIAS&&DEL LIBERTADOR AV.",-34.5382968325,-58.4653095941,0
652,"CANTILO, INT.",-34.5395394027,-58.4548098623,0
662,"CORREA&&DEL LIBERTADOR AV.",-34.5398812515,-58.464330262,0
664,"CRAMER&&PAZ, GRAL. AV.",-34.5406999805,-58.478484471,0
687,"DEHEZA&&SAN ISIDRO LABRADOR AV.",-34.5417000133,-58.4743477536,0
692,"11 DE SEPTIEMBRE DE 1888&&BESARES",-34.5418461616,-58.4641688412,0
714,"DEL LIBERTADOR AV.&&VILELA",-34.5421132821,-58.4626028142,0
759,"DEL LIBERTADOR AV.&&JARAMILLO",-34.5439518217,-58.4606231118,0
817,"DEL LIBERTADOR AV.&&NUÑEZ",-34.5454028648,-58.4589252251,0
836,"BESARES&&VIDAL",-34.5465099213,-58.4745010937,0
877,"DEL LIBERTADOR AV.&&PEDRAZA, MANUELA",-34.5467202925,-58.4572946115,0
899,"11 DE SEPTIEMBRE DE 1888&&PEDRAZA, MANUELA",-34.5479284448,-58.459709822,0
920,"FIGUEROA ALCORTA, PRES. AV.&&MONROE",-34.5477745571,-58.4421936362,0
925,"RICCHERI, PABLO, TTE. GRAL.&&UDAONDO, GUILLERMO AV",-34.5483142535,-58.4536645552,0
927,"ACHA, MARIANO, GRAL.&&PAZ, GRAL. AV.",-34.5483887403,-58.4958778394,0
928,"MACHAIN&&PAZ, GRAL. AV.",-34.5479558152,-58.4949105472,0
938,"DEL LIBERTADOR AV.&&GUAYRA",-34.548039041,-58.4557409725,0
940,"GOYENECHE, ROBERTO PARQUE AV.&&PICO",-34.5485698494,-58.4923367293,0
952,"PINTO&&VILELA",-34.5487259171,-58.4782038661,0
966,"DONADO&&PICO",-34.5488984385,-58.492965485,0
971,"MACHAIN&&MONTES, VICTORIANO E.",-34.5489997616,-58.4941719084,0
992,"DEHEZA&&HOLMBERG",-34.5492073818,-58.4915123769,0
995,"MILLER&&PAZ, GRAL. AV.",-34.5492356944,-58.4978107438,0
1001,"DEL LIBERTADOR AV.&&HERNANDEZ, RAFAEL",-34.5494053036,-58.4541585962,0
1005,"O'HIGGINS&&PEDRAZA, MANUELA",-34.5492715547,-58.4623950788,0
1043,"AMENABAR&&LARRALDE, CRISOLOGO AV.",-34.5500550461,-58.4701577872,0
1066,"ARIAS&&DONADO",-34.5504675423,-58.4918597276,0
1089,"HOLMBERG&&RAMALLO",-34.5507775981,-58.4904116102,0
1096,"ARIAS&&MACHAIN",-34.5509613451,-58.49279769,0
1111,"DEHEZA&&LUGONES",-34.5511518039,-58.4951922944,0
1127,"FIGUEROA ALCORTA, PRES. AV.&&JURAMENTO",-34.5506588794,-58.4375663451,0
1130,"ACHA, MARIANO, GRAL.&&ARIAS",-34.5514480318,-58.4937192337,0
1131,"CRAMER&&LARRALDE, CRISOLOGO AV.",-34.5514635015,-58.4727038689,0
1142,"ECHEVERRIA&&FIGUEROA ALCORTA, PRES. AV.",-34.5516102747,-58.4367428165,0
1169,"BALBIN, RICARDO, DR. AV.&&PAZ, GRAL. AV.",-34.5520455592,-58.5006496645,0
1172,"NAON, ROMULO&&VILELA",-34.5520917859,-58.4847332774,0
1202,"FIGUEROA ALCORTA, PRES. AV.&&SUCRE, ANTONIO JOSE D",-34.5525464562,-58.4359345099,0
1222,"LARRALDE, CRISOLOGO AV.&&PINTO",-34.5527900145,-58.475102007,0
1230,"DONADO&&RUIZ HUIDOBRO AV.",-34.5527538511,-58.4902602042,0
1243,"BESARES&&HOLMBERG",-34.5531059599,-58.4887888461,0
1253,"ESTOMBA&&PAROISSIEN",-34.5533552062,-58.4850720271,0
1279,"CONDE&&LARRALDE, CRISOLOGO AV.",-34.5538083676,-58.4769412867,0
1287,"HOLMBERG&&VILELA",-34.5539024304,-58.4882369305,0
1303,"GOYENECHE, ROBERTO PARQUE AV.&&VILELA",-34.5542068879,-58.4888508924,0
1317,"MANZANARES&&NAON, ROMULO",-34.5544066443,-58.4829651147,0
1320,"ALSINA, VALENTIN AV.&&FIGUEROA ALCORTA, PRES. AV.",-34.5539541175,-58.4341181016,0
1340,"LARRALDE, CRISOLOGO AV.&&PEREZ, ROQUE",-34.5548221164,-58.4787720985,0
1345,"BALBIN, RICARDO, DR. AV.&&ESTOMBA",-34.5548685515,-58.4838496915,0
1348,"LA PAMPA&&RAMSAY",-34.5549085342,-58.4374640008,0
1353,"BALBIN, RICARDO, DR. AV.&&GOYENECHE, ROBERTO PARQU",-34.5549488378,-58.4883594732,0
1355,"BALBIN, RICARDO, DR. AV.&&DONADO",-34.5549670729,-58.4887231912,0
1362,"ACHA, MARIANO, GRAL.&&BALBIN, RICARDO, DR. AV.",-34.5550899906,-58.4911782279,0
1372,"BALBIN, RICARDO, DR. AV.&&MILLER",-34.5552168798,-58.4936059501,0
1382,"LARRALDE, CRISOLOGO AV.&&MELIAN AV.",-34.5553272907,-58.4796844139,0
1394,"GARCIA DEL RIO&&HOLMBERG",-34.5554920532,-58.4871350246,0
1406,"AZURDUY JUANA&&CONDE",-34.5556892685,-58.475491753,0
1408,"RUIZ HUIDOBRO AV.&&TRIUNVIRATO AV.",-34.5557026921,-58.495961043,0
1416,"LARRALDE, CRISOLOGO AV.&&WASHINGTON",-34.5558290786,-58.4805906961,0
1422,"DONADO&&GARCIA DEL RIO",-34.5559293459,-58.4880498462,0
1426,"BALBIN, RICARDO, DR. AV.&&LARRALDE, CRISOLOGO AV.",-34.5560514909,-58.4809923377,0
1431,"JARAMILLO&&TRONADOR",-34.556128448,-58.4842141445,0
1440,"HOLMBERG&&MANZANARES",-34.556256469,-58.4866033272,0
1447,"GARCIA DEL RIO&&MACHAIN",-34.5563969713,-58.4890281013,0
1453,"MELIAN AV.&&NUÑEZ",-34.5564639088,-58.4788169204,0
1458,"LA PAMPA&&LUGONES, LEOPOLDO AV.",-34.5518582562,-58.4323342599,0
1459,"DE LOS OMBUES AV.&&LUGONES, LEOPOLDO AV.",-34.5565775315,-58.4244884951,0
1468,"DONADO&&MANZANARES",-34.5566955965,-58.4875194317,0
1472,"BALBIN, RICARDO, DR. AV.&&NUÑEZ",-34.5567649729,-58.4793543427,0
1474,"FREIRE, RAMON, CAP. GRAL.&&TAMBORINI, JOSE PASCUAL",-34.5568096753,-58.4727820153,0
1491,"CUBA&&MONROE",-34.5571542325,-58.4580098146,0
1496,"LARRALDE, CRISOLOGO AV.&&TRONADOR",-34.5572264962,-58.4834048327,0
1508,"NAON, ROMULO&&NUÑEZ",-34.5574787585,-58.4806283206,0
1509,"DONADO&&JARAMILLO",-34.5574846651,-58.4869733516,0
1510,"CONDE&&TAMBORINI, JOSE PASCUAL",-34.5575016922,-58.4741216487,0
1515,"ARTILLEROS&&LA PAMPA",-34.5576051692,-58.4419649859,0
1516,"ACHA, MARIANO, GRAL.&&MANZANARES",-34.5576054351,-58.4894265013,0
1517,"BALBIN, RICARDO, DR. AV.&&PEDRAZA, MANUELA",-34.5576265766,-58.4773578986,0
1522,"11 DE SEPTIEMBRE DE 1888&&MENDOZA",-34.5578132054,-58.4520017147,0
1539,"HOLMBERG&&LARRALDE, CRISOLOGO AV.",-34.5581302749,-58.4852966312,0
1546,"BELLO, ANDRES&&BUNGE, INT.",-34.5582613276,-58.4311173649,0
1551,"ECHEVERRIA&&MONTAÑESES",-34.5583551147,-58.4480727399,0
1553,"ACHA, MARIANO, GRAL.&&JARAMILLO",-34.5583944425,-58.4888766879,0
1554,"FREIRE, RAMON, CAP. GRAL.&&QUESADA",-34.558416389,-58.4709548774,0
1559,"NUÑEZ&&TRONADOR",-34.5584950591,-58.4824463195,0
1564,"DONADO&&LARRALDE, CRISOLOGO AV.",-34.5585724388,-58.4862203261,0
1578,"BALBIN, RICARDO, DR. AV.&&IBERA",-34.5589138184,-58.4743245089,0
1579,"LA PAMPA&&MIGUELETES",-34.5589252871,-58.4441989523,0
1580,"CONGRESO AV.&&ZAPIOLA",-34.5589291043,-58.4691846252,0
1585,"FLOR DEL AIRE&&GALVAN",-34.5590086792,-58.4935106256,0
1601,"AMENABAR&&MONROE",-34.559393754,-58.4617786766,0
1602,"CONGRESO AV.&&FREIRE, RAMON, CAP. GRAL.",-34.5594050532,-58.4701011813,0
1607,"BALBIN, RICARDO, DR. AV.&&QUESADA",-34.5594795809,-58.4729536716,0
1609,"HOLMBERG&&NUÑEZ",-34.5594844157,-58.4843499049,0
1617,"ECHEVERRIA&&VERTIZ VIRREY AV.",-34.5591470512,-58.4493993232,0
1621,"BALBIN, RICARDO, DR. AV.&&CONDE",-34.559765414,-58.4722705872,0
1632,"DONADO&&NUÑEZ",-34.5599398919,-58.4853007679,0
1649,"ARCOS&&JURAMENTO AV.",-34.5603857427,-58.453837498,0
1652,"LA PAMPA&&VERTIZ VIRREY AV.",-34.5604005437,-58.4466935236,0
1655,"MONROE&&VIDAL",-34.5604574488,-58.4635705252,0
1663,"ACHIRA&&GALVAN",-34.5607080856,-58.4923387334,0
1673,"HOLMBERG&&PEDRAZA, MANUELA",-34.5608645383,-58.4833850227,0
1674,"BLANCO ENCALADA&&MOLDES",-34.5608661821,-58.4618688821,0
1675,"DORREGO AV.&&LUGONES, LEOPOLDO AV.",-34.5623408476,-58.4168012543,0
1676,"CUBA&&JURAMENTO AV.",-34.5609244834,-58.4547426546,0
1696,"CONGRESO AV.&&PEREZ, ROQUE",-34.561337297,-58.4738183333,0
1706,"CONESA&&MONROE",-34.5616018206,-58.4654985372,0
1728,"CAMPOS, LUIS M. AV.&&PINO, VIRREY DEL",-34.5620110542,-58.4446213229,0
1770,"GALVAN&&NUÑEZ",-34.5626512581,-58.490990748,0
1777,"CONGRESO AV.&&NAON, ROMULO",-34.562792324,-58.4767377681,0
1778,"CAMPOS, LUIS M. AV.&&LORETO, VIRREY",-34.5628269736,-58.4436358831,0
1784,"FREIRE, RAMON, CAP. GRAL.&&MONROE AV.",-34.5629682754,-58.4675409385,0
1788,"HOLMBERG&&IBERA",-34.5629799744,-58.4822678145,0
1819,"LARRALDE, CRISOLOGO AV.&&TRIUNVIRATO AV.",-34.563536357,-58.4965923459,0
1844,"GARCIA, TEODORO&&SOLDADO DE LA INDEPENDENCIA",-34.5639002729,-58.4406006515,0
1866,"CAMPOS, LUIS M. AV.&&ZABALA",-34.5636265418,-58.4426233576,0
1893,"ANDONAEGUI&&LARRALDE, CRISOLOGO AV.",-34.5647213911,-58.4990519312,0
1898,"ANDONAEGUI&&LARRALDE, CRISOLOGO AV.",-34.5647632679,-58.4991388656,0
1903,"BUCARELLI&&ISLANDIA",-34.5648479718,-58.4974764208,0
1905,"NUÑEZ&&TRIUNVIRATO AV.",-34.5648612912,-58.4956327056,0
1921,"DIAZ COLODRERO&&PEDRAZA, MANUELA",-34.5650878242,-58.4923555789,0
1924,"HOLMBERG&&LE BRETON, TOMAS A.",-34.5651361842,-58.4805973042,0
1945,"PIRAN&&TRIUNVIRATO AV.",-34.5654752228,-58.4951926535,0
1947,"BUCARELLI&&NUÑEZ",-34.565493975,-58.4969565439,0
1949,"DORREGO AV.&&FIGUEROA ALCORTA, PRES. AV.",-34.565529749,-58.4198297945,0
1960,"CRAMER AV.&&ECHEVERRIA",-34.5657014034,-58.4604891871,0
1962,"DEL LIBERTADOR AV.&&MAURE",-34.5648886342,-58.434411343,0
1965,"ACHA, MARIANO, GRAL.&&CONGRESO AV.",-34.5658613662,-58.4827650312,0
1968,"BURELA&&LARRALDE, CRISOLOGO AV.",-34.5658721022,-58.5014369967,0
1978,"ANDONAEGUI&&NUÑEZ",-34.5660446494,-58.4981089159,0
2020,"FIGUEROA ALCORTA, PRES. AV.&&ROLDAN, BELISARIO AV.",-34.5667387425,-58.4179608006,0
2022,"AMENABAR&&HERNANDEZ, JOSE",-34.5667850785,-58.4554341678,0
2030,"BEETHOVEN&&NUÑEZ",-34.5668673327,-58.4998304351,0
2031,"BUCARELLI&&PEDRAZA, MANUELA",-34.5668849417,-58.495836526,0
2033,"MENDOZA&&SUPERI",-34.5669160413,-58.4673741119,0
2039,"CIUDAD DE LA PAZ&&PINO, VIRREY DEL",-34.5670032826,-58.4538767601,0
2043,"DIAZ COLODRERO&&IBERA",-34.5670730091,-58.4908269741,0
2045,"DEL LIBERTADOR AV.&&MATIENZO, BENJAMIN, TENIENTE",-34.5661701019,-58.432247231,0
2047,"BURELA&&NUÑEZ",-34.5671431503,-58.5004075749,0
2052,"ESTOMBA&&MONROE",-34.567197383,-58.4742689046,0
2055,"MELIAN AV.&&OLAZABAL AV.",-34.5669236202,-58.4696519614,0
2058,"TAMBORINI, JOSE PASCUAL&&TRIUNVIRATO AV.",-34.5672804004,-58.4938201745,0
2062,"LUGONES, LEOPOLDO AV.&&SARMIENTO AV.",-34.567268177,-58.4078627494,0
2063,"CAMPOS, LUIS M. AV.&&GOROSTIAGA",-34.5673287986,-58.4380999224,0
2080,"CRAMER AV.&&LA PAMPA",-34.5675456203,-58.458889247,0
2116,"LAVOISIER&&NUÑEZ",-34.5680569403,-58.5023167277,0
2119,"FIGUEROA ALCORTA, PRES. AV.",-34.5681129551,-58.4167287031,0
2120,"ACHA, MARIANO, GRAL.&&RIVERA, PEDRO I., DR.",-34.5681330567,-58.4807492046,0
2122,"MELIAN AV.&&MENDOZA",-34.5677820652,-58.4686805022,0
2129,"LARRALDE, CRISOLOGO AV.&&ZADO",-34.5682416758,-58.5062618445,0
2133,"DEL LIBERTADOR AV.&&ORTEGA Y GASSET",-34.5673914143,-58.4301769766,0
2162,"MENDOZA&&WASHINGTON",-34.5687021463,-58.4702430032,0
2171,"CAMPOS, LUIS M. AV.&&VOLTA",-34.5688340249,-58.4370206642,0
2182,"ACHEGA&&NUÑEZ",-34.5689599303,-58.504211104,0
2195,"CONDE&&SUCRE, ANTONIO JOSE DE, MCAL.",-34.5691397458,-58.4638798423,0
2197,"ORTEGA Y GASSET&&SOLDADO DE LA INDEPENDENCIA",-34.5691576936,-58.4316764089,0
2206,"LE BRETON, TOMAS A.&&PACHECO",-34.5693027482,-58.4872754335,0
2209,"CAMPOS, LUIS M. AV.&&NEWBERY, JORGE",-34.5693283732,-58.4365671733,0
2217,"QUESADA&&TRIUNVIRATO AV.",-34.5694171886,-58.4921510617,0
2220,"ECHEVERRIA&&MELIAN AV.",-34.5694299842,-58.4668154182,0
2225,"DE LOS INCAS AV.&&ELCANO",-34.5695267398,-58.4577103825,0
2251,"DE LOS CONSTITUYENTES AV.&&PAZ, GRAL. AV.",-34.569997991,-58.5090394787,0
2252,"MEDEYROS&&NUÑEZ",-34.5699733045,-58.5063371423,0
2265,"JURAMENTO&&NAON, ROMULO",-34.5701506168,-58.4704162866,0
2277,"MELIAN AV.&&SUCRE, ANTONIO JOSE DE, MCAL.",-34.5702934768,-58.4658381968,0
2282,"PIRAN&&ZADO",-34.5703836537,-58.5045337799,0
2287,"FIGUEROA ALCORTA, PRES. AV.&&LEVILLIER, ROBERTO, D",-34.5705197688,-58.4133537319,0
2288,"LEVILLIER, ROBERTO, DR.&&ROLDAN, BELISARIO AV.",-34.570083844,-58.412839016,0
2294,"CAPDEVILA&&LE BRETON, TOMAS A.",-34.5705984857,-58.4896346326,0
2307,"DIAZ COLODRERO&&NAHUEL HUAPI",-34.570752997,-58.4879429665,0
2322,"ALVAREZ THOMAS AV.",-34.5710008607,-58.4839192988,0
2323,"BUCARELLI&&CONGRESO AV.",-34.5710098787,-58.4925245888,0
2328,"CIUDAD DE LA PAZ&&GARCIA, TEODORO",-34.5711092924,-58.4466988867,0
2329,"CAMPOS, LUIS M. AV.&&REPUBLICA DE ESLOVENIA",-34.5711098686,-58.434919492,0
2338,"CONDE&&PINO, VIRREY DEL",-34.571216685,-58.4620838418,0
2339,"BAUNESS&&LE BRETON, TOMAS A.",-34.5712192352,-58.4907649998,0
2350,"ROLDAN, BELISARIO AV.&&SARMIENTO AV.",-34.5711242221,-58.4115055104,0
2351,"FIGUEROA ALCORTA, PRES. AV.&&SARMIENTO AV.",-34.571368887,-58.4118672696,0
2352,"DE LOS CONSTITUYENTES AV.&&PIRAN",-34.5714059609,-58.5066738253,0
2356,"SUCRE, ANTONIO JOSE DE, MCAL.&&WASHINGTON",-34.5714680892,-58.4678781664,0
2371,"NAHUEL HUAPI&&TRIUNVIRATO AV.",-34.5717153265,-58.4896944095,0
2386,"BAUNESS&&NAHUEL HUAPI",-34.571971075,-58.4901606956,0
2396,"NAON, ROMULO&&SUCRE, ANTONIO JOSE DE, MCAL.",-34.5720120039,-58.4688409157,0
2434,"BUCARELLI&&NAHUEL HUAPI",-34.5725774585,-58.4912667314,0
2442,"BAUNESS&&RIVERA, PEDRO I., DR.",-34.5727206577,-58.4895581677,0
2443,"ALVAREZ THOMAS AV.&&BLANCO ENCALADA",-34.5727476685,-58.4816378059,0
2447,"DE LOS CONSTITUYENTES AV.&&TAMBORINI, JOSE PASCUAL",-34.5728056475,-58.5041947683,0
2456,"CULLEN&&TRIUNVIRATO AV.",-34.5729806236,-58.4880617089,0
2463,"DIAZ COLODRERO&&ROOSEVELT FRANKLIN D. AV.",-34.5730424146,-58.4861045083,0
2470,"MONROE&&PACHECO",-34.5730930327,-58.4842319285,0
2474,"DEL LIBERTADOR AV.&&ISABEL, INFANTA AV.",-34.5718228692,-58.4217436106,0
2480,"CONDE&&ELCANO AV.",-34.573221955,-58.4595343738,0
2486,"BUCARELLI&&RIVERA, PEDRO I., DR.",-34.5733277508,-58.490664635,0
2487,"FOREST AV.&&PINO, VIRREY DEL",-34.5733361396,-58.4660378516,0
2488,"CERETTI&&CONGRESO AV.",-34.5733363179,-58.4969608106,0
2489,"EZEIZA&&ZAMUDIO",-34.5733402162,-58.5050838655,0
2495,"DEL LIBERTADOR AV.&&DORREGO AV.",-34.5707864464,-58.424105683,0
2501,"DE LOS CONSTITUYENTES AV.&&IBERA",-34.5735496659,-58.5029456517,0
2502,"COMBATIENTES DE MALVINAS AV.&&OLAZABAL AV.",-34.5735640067,-58.4807875444,0
2503,"CLAY&&HUERGO",-34.5735742323,-58.4307604426,0
2509,"DEL LIBERTADOR AV.&&GODOY CRUZ",-34.5723640877,-58.4205504939,0
2525,"DORREGO AV.&&HUERGO",-34.573990556,-58.4299293402,0
2529,"ANDONAEGUI&&RIVERA, PEDRO I., DR.",-34.5739361008,-58.4917734175,0
2532,"FREIRE, RAMON, CAP. GRAL.&&LORETO, VIRREY",-34.5739995705,-58.4551057916,0
2533,"HEREDIA&&PINO, VIRREY DEL",-34.5740027413,-58.4671903037,0
2540,"BUCARELLI&&CULLEN",-34.5740788852,-58.4900618469,0
2546,"CAMPOS, LUIS M. AV.&&CLAY",-34.5741435088,-58.4319899585,0
2547,"DEL LIBERTADOR AV.&&FRAY JUSTO SANTAMARIA DE ORO",-34.5729715092,-58.4192068896,0
2552,"BAUNESS&&ROOSEVELT FRANKLIN D. AV.",-34.5742593284,-58.4883215049,0
2553,"ALBARELLOS AV.&&ZAMUDIO",-34.5742571383,-58.5042450296,0
2555,"MONROE&&TRIUNVIRATO AV.",-34.5743107015,-58.4863606107,0
2566,"DEMARIA&&GODOY CRUZ",-34.5744855958,-58.4217367517,0
2570,"CAMPOS, LUIS M. AV.&&DORREGO AV.",-34.5745097491,-58.4315831989,0
2574,"DEL LIBERTADOR AV.&&SARMIENTO AV.",-34.5745373658,-58.4148811868,0
2576,"BULLRICH, INT. AV.&&CERVIÑO AV.",-34.5745562389,-58.4249896121,0
2580,"OLAZABAL AV.&&PACHECO",-34.5747797553,-58.4828909563,0
2586,"ACHEGA&&CONGRESO AV.",-34.5747105942,-58.4995816841,0
2591,"BUCARELLI&&ROOSEVELT FRANKLIN D. AV.",-34.5748672069,-58.4894291758,0
2597,"DE LOS CONSTITUYENTES AV.&&LARSEN",-34.5746848755,-58.5014746505,0
2606,"DE LOS INCAS AV.&&FOREST AV.",-34.5750085978,-58.4633561067,0
2607,"AVILES, VIRREY&&ELCANO AV.",-34.5750212254,-58.4598507551,0
2615,"AUTOPISTA ARTURO ILLIA&&OBLIGADO RAFAEL, AV.COSTAN",-34.5721906073,-58.3952092485,0
2616,"CASTILLO, RAMON S., PRES. AV.&&SIN NOMBRE OFICIAL ",-34.5750556966,-58.3903893096,0
2617,"BURELA&&RIVERA, PEDRO I., DR.",-34.5751315116,-58.4939542431,0
2629,"CESPEDES&&FREIRE, RAMON, CAP. GRAL.",-34.5753031407,-58.4526699078,0
2632,"CAMPOS, LUIS M. AV.&&RAVIGNANI, EMILIO, DR.",-34.5747532748,-58.4313127051,0
2649,"ARTIGAS, JOSE GERVASIO, GRAL.&&ESCOBAR",-34.5756129674,-58.5047881201,0
2650,"ALBARELLOS AV.&&ESTADO PLURINACIONAL DE BOLIVIA",-34.5756142593,-58.5065443847,0
2655,"ELCANO AV.&&MARTINEZ, ENRIQUE, GRAL.",-34.5756473649,-58.4598676721,0
2670,"ALVAREZ THOMAS AV.&&ECHEVERRIA",-34.575872938,-58.4774282301,0
2672,"CERVIÑO AV.&&FRAY JUSTO SANTAMARIA DE ORO",-34.5759041771,-58.4212146477,0
2701,"BLANCO ENCALADA&&BUCARELLI",-34.5762765522,-58.4876187637,0
2702,"BUCARELLI&&MONROE",-34.5754361797,-58.4883353947,0
2706,"ALBARELLOS AV.&&CONDARCO",-34.5762962523,-58.5076989876,0
2711,"COCHRANE&&ZAMUDIO",-34.5763506182,-58.5023463147,0
2716,"DEL LIBERTADOR AV.&&REPUBLICA DE LA INDIA",-34.5757966961,-58.4131614802,0
2719,"CERETTI&&CULLEN",-34.5764766975,-58.4944365481,0
2724,"AIZPURUA&&RIVERA, PEDRO I., DR.",-34.5765516339,-58.4965519835,0
2732,"ALBARELLOS AV.&&EL GAUCHO",-34.5766389346,-58.5082771059,0
2736,"DE LOS CONSTITUYENTES AV.&&NAHUEL HUAPI",-34.5767289489,-58.4988448999,0
2744,"GODOY CRUZ&&JUNCAL",-34.5767945488,-58.4235320779,0
2745,"DEL LIBERTADOR AV.&&REPUBLICA ARABE SIRIA",-34.5767997976,-58.4109418477,0
2748,"AVILES, VIRREY&&FOREST AV.",-34.5768374246,-58.4616058631,0
2750,"DELGADO&&OLAGUER Y FELIU, VIRREY",-34.5769095704,-58.4597925257,0
2752,"ALTOLAGUIRRE&&MONROE",-34.5769557901,-58.4909309534,0
2754,"ALBARELLOS AV.&&TERRADA",-34.5769780952,-58.5088493523,0
2771,"NEWBERY, JORGE&&ZAPIOLA",-34.5771507571,-58.4457426548,0
2778,"ALVAREZ THOMAS AV.&&LA PAMPA",-34.577190486,-58.4755943365,0
2797,"JURAMENTO&&TRIUNVIRATO AV.",-34.5775151213,-58.4814013924,0
2810,"ALVAREZ THOMAS AV.&&PINO, VIRREY DEL",-34.5776592034,-58.4735687093,0
2826,"ALTOLAGUIRRE&&BLANCO ENCALADA",-34.5778050525,-58.4902079528,0
2833,"FITZ ROY&&SANTA FE AV.",-34.5774854986,-58.4286857177,0
2843,"CARACAS&&OBISPO SAN ALBERTO",-34.5779980584,-58.4990840938,0
2860,"ALVAREZ THOMAS AV.&&DONADO",-34.5782734262,-58.470873513,0
2866,"ALVAREZ THOMAS AV.&&FOREST AV.",-34.5782953834,-58.4602255025,0
2878,"ECHEVERRIA&&TRIUNVIRATO AV.",-34.5783921543,-58.4801062223,0
2902,"GODOY CRUZ&&SANTA FE AV.",-34.5786634435,-58.4252545657,0
2907,"FREIRE, RAMON, CAP. GRAL.&&MATIENZO, BENJAMIN, TEN",-34.5786929355,-58.445506144,0
2911,"CABEZON, JOSE LEON&&CARACAS",-34.5787285459,-58.4984232715,0
2913,"DEL LIBERTADOR AV.&&SALGUERO, JERONIMO",-34.5786726233,-58.406928739,0
2918,"ALVAREZ THOMAS AV.&&HOLMBERG",-34.5788163145,-58.468327699,0
2923,"ALVAREZ THOMAS AV.&&PEREZ, GREGORIA",-34.5789163408,-58.4559717262,0
2930,"ALVAREZ THOMAS AV.&&TRONADOR",-34.5790203352,-58.4660231378,0
2935,"BLANCO ENCALADA&&CERETTI",-34.5790594481,-58.4923348115,0
2937,"AIZPURUA&&MONROE",-34.5790686221,-58.4945400271,0
2940,"LA PAMPA&&TRIUNVIRATO AV.",-34.579125134,-58.4789879262,0
2951,"FRAY JUSTO SANTAMARIA DE ORO&&SANTA FE AV.",-34.5791629789,-58.4242582138,0
2953,"CONDE&&NEWBERY, JORGE",-34.5792400407,-58.4468862038,0
2991,"GAVILAN&&GRIVEO",-34.5796573824,-58.4958240476,0
3001,"CABELLO&&LAFINUR",-34.5797303252,-58.4139332476,0
3010,"ALVAREZ THOMAS AV.&&PALPA",-34.5798333989,-58.4530215723,0
3017,"CERVIÑO AV.&&SCALABRINI ORTIZ, RAUL",-34.579877193,-58.409834747,0
3038,"GUTIERREZ, JUAN MARIA&&REPUBLICA DE LA INDIA",-34.5800787448,-58.4159719084,0
3043,"ARTIGAS, JOSE GERVASIO, GRAL.&&D'ARIENZO JUAN",-34.5801411397,-58.5006865788,0
3050,"CUENCA&&PAZ, GRAL. AV.",-34.5802334324,-58.5138726962,0
3051,"ALBARELLOS AV.&&PAZ, GRAL. AV.",-34.5798213218,-58.5136786586,0
3058,"CARACAS&&GRIVEO",-34.5803549765,-58.4969536779,0
3100,"CHARLONE&&ZABALA",-34.5807557755,-58.4579834573,0
3138,"GRIVEO&&ZAMUDIO",-34.5810565725,-58.498089885,0
3159,"DE LOS INCAS AV.&&TRIUNVIRATO AV.",-34.5812697,-58.4743102605,0
3160,"ALVAREZ THOMAS AV.&&GARCIA, TEODORO",-34.5800988244,-58.4521940213,0
3189,"LAS HERAS GENERAL AV.&&REPUBLICA DE LA INDIA",-34.5815737267,-58.4169532188,0
3199,"BARZANA&&ECHEVERRIA",-34.5816743838,-58.4858760349,0
3632,"FOREST AV.&&GUEVARA",-34.5856765047,-58.4535163412,0
3204,"LAFINUR&&LAS HERAS GENERAL AV.",-34.5816844699,-58.4152280994,0
3208,"GIRIBONE&&LACROZE, FEDERICO AV.",-34.5817032463,-58.4517131586,0
3215,"LAS HERAS GENERAL AV.&&REPUBLICA ARABE SIRIA",-34.5817486507,-58.4142284477,0
3225,"LAS HERAS GENERAL AV.&&UGARTECHE",-34.5818461306,-58.4127085314,0
3228,"CALZADA CIRCULAR PLAZA ITALIA&&SANTA FE AV.",-34.5818627216,-58.4207537283,0
3236,"LAS HERAS GENERAL AV.&&SCALABRINI ORTIZ, RAUL",-34.5819777791,-58.411098761,0
3259,"LAS HERAS GENERAL AV.&&SALGUERO, JERONIMO",-34.582236477,-58.4101916181,0
3264,"FRANCO&&NAZCA",-34.5814802194,-58.5065339696,0
3269,"GURRUCHAGA&&SANTA FE AV.",-34.5823463581,-58.4200547683,0
3277,"HUMBOLDT&&NICARAGUA",-34.5824052197,-58.4325593021,0
3278,"ARAOZ&&SALGUERO, JERONIMO",-34.582404533,-58.4102486447,0
3289,"LAS HERAS GENERAL AV.&&PAUNERO",-34.5825406267,-58.4092050834,0
3301,"BARZANA&&LA PAMPA",-34.5826750372,-58.4850949965,0
3304,"FRAGA&&HOLMBERG",-34.582718071,-58.4684876698,0
3312,"FRAGA&&TRONADOR",-34.5827841332,-58.466227188,0
3314,"BURELA&&ECHEVERRIA",-34.5827828311,-58.487824586,0
3322,"FRAGA&&HEREDIA",-34.5828667755,-58.4633943431,0
3330,"CABEZON, JOSE LEON&&NAZCA",-34.5829362684,-58.5052186873,0
3335,"COUTURE, EDUARDO J.&&ROMERO, FRANCISCO",-34.5829554585,-58.3893962357,0
3340,"CHARCAS&&THAMES",-34.5830160213,-58.424021607,0
3356,"BULNES&&LAS HERAS GENERAL AV.",-34.5831597315,-58.4071969894,0
3360,"FOREST AV.&&PALPA",-34.583194014,-58.4557704877,0
3369,"ANTARTIDA ARGENTINA AV.&&ZANNI PEDRO COMODORO",-34.583845679,-58.3730793446,0
3370,"ANTARTIDA ARGENTINA AV.&&CASTILLO, RAMON S., PRES.",-34.5810081517,-58.3742490839,0
3371,"LACROZE, FEDERICO AV.&&ROSETI",-34.5833307661,-58.452767061,0
3390,"LAS HERAS GENERAL AV.&&SANCHEZ DE BUSTAMANTE",-34.5834269082,-58.4020469877,0
3392,"BILLINGHURST&&LAS HERAS GENERAL AV.",-34.5834423241,-58.4040296425,0
3399,"ARMENIA&&SANTA FE AV.",-34.5835812945,-58.4182588696,0
3415,"AREVALO&&VEGA, NICETO, CNEL. AV.",-34.583742527,-58.4436085641,0
3417,"PLAZA&&TRIUNVIRATO AV.",-34.5837740474,-58.4673939225,0
3421,"BURELA&&LA PAMPA",-34.5837987809,-58.4870325808,0
3425,"LAS HERAS GENERAL AV.&&PACHECO DE MELO, JOSE ANDRE",-34.5832476298,-58.4069117711,0
3444,"LLAVALLOL&&PAZ, GRAL. AV.",-34.5832236805,-58.515257389,0
3453,"ELCANO AV.&&GUEVARA",-34.5840461319,-58.4605351458,0
3459,"ARAOZ&&JUNCAL",-34.5840625931,-58.4125718875,0
3469,"CABRERA, JOSE A.&&CARRANZA, ANGEL JUSTINIANO",-34.5841691939,-58.4402171675,0
3471,"ESTADO PLURINACIONAL DE BOLIVIA&&MOSCONI GENERAL A",-34.58418143,-58.498784126,0
3482,"ARTIGAS, JOSE GERVASIO, GRAL.&&MISTRAL, GABRIELA",-34.5842978768,-58.4969144811,0
3483,"VALLEJOS&&ZAMUDIO",-34.5843167366,-58.4951272177,0
3489,"FRAGA&&LACROZE, FEDERICO AV.",-34.584358094,-58.4534323688,0
3491,"MALABIA&&SANTA FE AV.",-34.5843663741,-58.4171148134,0
3498,"LAS HERAS GENERAL AV.&&TAGLE",-34.584471517,-58.4005468355,0
3499,"AVALOS&&DEL TEMPLE",-34.5844982169,-58.4776355796,0
3500,"RAVIGNANI, EMILIO, DR.&&VEGA, NICETO, CNEL. AV.",-34.5844991214,-58.4425236742,0
3508,"ESTOMBA&&TRIUNVIRATO AV.",-34.5845901065,-58.4648843669,0
3533,"BAUNESS&&DE LOS INCAS AV.",-34.5847519367,-58.4789223969,0
3534,"COCHRANE&&PAZ, GRAL. AV.",-34.5847583123,-58.5160163417,0
3541,"FIGUEROA ALCORTA, PRES. AV.&&VAZ FERREIRA, CARLOS,",-34.5847960958,-58.3892315457,0
3556,"FITZ ROY&&GORRITI",-34.5849221891,-58.4371901569,0
3559,"BONPLAND&&CABRERA, JOSE A.",-34.5849435124,-58.4391700424,0
3565,"BUCARELLI&&VICTORICA, BENJAMIN, GENERAL, AV.",-34.5850265236,-58.4794297685,0
3577,"14 DE JULIO&&TRIUNVIRATO AV.",-34.5851344865,-58.4620563912,0
3580,"SANTA FE AV.&&SCALABRINI ORTIZ, RAUL",-34.5851517179,-58.4159536205,0
3582,"FOREST AV.&&LACROZE, FEDERICO AV.",-34.5851816719,-58.4539657335,0
3587,"CARRANZA, ANGEL JUSTINIANO&&VEGA, NICETO, CNEL. AV",-34.5852469758,-58.441451369,0
3616,"BALLIVIAN&&DE LOS CONSTITUYENTES AV.",-34.5855507159,-58.4880857877,0
3634,"CONDARCO&&MISTRAL, GABRIELA",-34.5856987364,-58.4991781644,0
3649,"ARAOZ&&SANTA FE AV.",-34.5857893804,-58.4149915727,0
3665,"BONPLAND&&VEGA, NICETO, CNEL. AV.",-34.5859942574,-58.440379811,0
3671,"GUEMES&&SCALABRINI ORTIZ, RAUL AV.",-34.5860767359,-58.417432926,0
3675,"FOREST AV.&&OLLEROS",-34.5861228176,-58.4531110575,0
3743,"FITZ ROY&&VEGA, NICETO, CNEL. AV.",-34.5867613834,-58.4392797878,0
3773,"GUEVARA&&NEWBERY, JORGE AV.",-34.5869534716,-58.4502136804,0
3778,"BAUNESS&&LLERENA",-34.5869860965,-58.4768602774,0
3780,"SALGUERO, JERONIMO&&SANTA FE AV.",-34.5870035918,-58.4131576451,0
3785,"MONTENEGRO&&TRONADOR",-34.5870552253,-58.469287086,0
3788,"CORRIENTES AV.&&LACROZE, FEDERICO AV.",-34.5869815755,-58.4551189932,0
3794,"LA BLANQUEADA&&PAZ, GRAL. AV.",-34.5870980897,-58.5171055447,0
3806,"LAPRIDA&&LAS HERAS GENERAL AV.",-34.5865467579,-58.3982467109,0
3826,"GRIVEO&&ZEBALLOS, ESTANISLAO S.",-34.5874461948,-58.5084161909,0
3843,"CALLAO AV.&&POSADAS",-34.5875455986,-58.3870874492,0
3849,"DORREGO AV.&&FRAGA",-34.5876527059,-58.4457048527,0
3868,"CORRIENTES AV.",-34.5877539801,-58.4540832965,0
3871,"PARAGUAY&&SCALABRINI ORTIZ, RAUL AV.",-34.5877879047,-58.4201695446,0
3874,"ARENAL, CONCEPCION&&GUEVARA",-34.5878147223,-58.4481130947,0
3893,"LAS HERAS GENERAL AV.&&PUEYRREDON AV.",-34.5874088651,-58.3972903801,0
3906,"MANSILLA, LUCIO NORBERTO, GENERAL&&SCALABRINI ORTI",-34.5873536355,-58.4194750156,0
3913,"BULNES&&SANTA FE AV.",-34.5880729372,-58.4115448955,0
3919,"DEL LIBERTADOR AV.&&RODRIGUEZ PEÑA",-34.5870348502,-58.3850287835,0
3929,"CORRIENTES AV.&&MAURE",-34.5882376858,-58.4527775117,0
3955,"ANASAGASTI&&SANTA FE AV.",-34.5884006891,-58.4110485918,0
3974,"GAVILAN&&SOLANO LOPEZ, F., MARISCAL",-34.5886157071,-58.4876988255,0
3976,"GUATEMALA&&SCALABRINI ORTIZ, RAUL AV.",-34.5886138717,-58.4214906082,0
3983,"COMBATE DE COSTA BRAVA&&PY, COMODORO AV.",-34.588606155,-58.3691886759,0
3988,"CORRIENTES AV.",-34.5883790418,-58.451423042,0
3992,"CORRIENTES AV.&&NEWBERY, JORGE AV.",-34.5886905321,-58.4507684364,0
4006,"DEL LIBERTADOR AV.&&MONTEVIDEO",-34.5876779712,-58.3838474616,0
4008,"CANTILO&&LAS HERAS GENERAL AV.",-34.5880231751,-58.3965202865,0
4010,"ANTARTIDA ARGENTINA AV.",-34.5878229091,-58.3715092759,0
4052,"CHORROARIN AV.&&MORLOTE",-34.589249314,-58.4730861212,0
4057,"ANTARTIDA ARGENTINA AV.&&RAMOS MEJIA, JOSE MARIA, ",-34.5892899872,-58.3718770288,0
4079,"CORBETA URUGUAY&&PY, COMODORO AV.",-34.5894321161,-58.3695455444,0
4080,"CORBETA URUGUAY&&PY, COMODORO AV.",-34.5855126474,-58.3663091656,0
4089,"PAZ, GRAL. AV.&&SAN MARTIN AV.",-34.5895214954,-58.5182490218,0
4104,"DEL LIBERTADOR AV.&&LIBERTAD",-34.588226616,-58.3828394984,0
4113,"TRIUNVIRATO AV. 2775",-34.5850561681,-58.461625437,0
4121,"NICARAGUA&&SCALABRINI ORTIZ, RAUL AV.",-34.5897456642,-58.423206495,0
4132,"ARENAL, CONCEPCION&&CORRIENTES AV.",-34.5898892912,-58.4495171683,0
4150,"SOLANO LOPEZ, F., MARISCAL&&ZAMUDIO",-34.5900201854,-58.4899714989,0
4154,"ANTARTIDA ARGENTINA AV.&&SAN MARTIN",-34.5900034651,-58.3707048934,0
4156,"SANCHEZ DE BUSTAMANTE&&SANTA FE AV.",-34.5900417503,-58.4088999675,0
4165,"CERRITO&&DEL LIBERTADOR AV.",-34.5886987253,-58.3819722696,0
4167,"BEIRO, FRANCISCO AV.&&GAVILAN",-34.5901352953,-58.4863286209,0
4174,"ARENAL, CONCEPCION&&CORRIENTES AV.",-34.5902139054,-58.4491741967,0
4181,"DORREGO AV.&&VERA",-34.5898493143,-58.446350711,0
4193,"ANTARTIDA ARGENTINA AV.&&PY, COMODORO AV.",-34.5903136605,-58.3705843959,0
4201,"PELLEGRINI, CARLOS&&POSADAS",-34.5903676938,-58.3814404694,0
4202,"DEL LIBERTADOR AV.&&PELLEGRINI, CARLOS",-34.589277318,-58.380909328,0
4208,"FITZ ROY&&RAMIREZ DE VELASCO, JUAN",-34.5904744978,-58.4441835604,0
4235,"NAVARRO&&ZAMUDIO",-34.5907592871,-58.4892979015,0
4236,"BUCARELLI&&CHORROARIN AV.",-34.5907683234,-58.475033034,0
4251,"AUSTRIA&&SANTA FE AV.",-34.5908687274,-58.4079410049,0
4252,"EL SALVADOR&&SCALABRINI ORTIZ, RAUL AV.",-34.5908782031,-58.4249100803,0
4260,"AYACUCHO&&LAS HERAS GENERAL AV.",-34.5909362699,-58.3929163924,0
4261,"GILARDI, GILARDO&&RAMOS MEJIA, JOSE MARIA, DR. AV.",-34.591108113,-58.3741494076,0
4281,"GUZMAN&&NEWBERY, JORGE AV.",-34.5896778345,-58.4518062322,0
4290,"HUMBOLDT&&RAMIREZ DE VELASCO, JUAN",-34.591314375,-58.4433274668,0
4310,"BEIRO, FRANCISCO AV.&&ZAMUDIO",-34.591532406,-58.4885933057,0
4311,"HONDURAS&&SCALABRINI ORTIZ, RAUL AV.",-34.5915307726,-58.4258918848,0
4315,"CHIVILCOY AV.&&PAZ, GRAL. AV.",-34.5915360412,-58.5191696927,0
4318,"ALVEAR AV.&&CERRITO",-34.591553568,-58.383152135,0
4336,"AGUERO&&SANTA FE AV.",-34.591673093,-58.4071394072,0
4343,"CUENCA&&HABANA",-34.5917018093,-58.5034386408,0
4344,"GALLO&&GUEMES",-34.5917098964,-58.4091017224,0
4350,"CALLAO AV.&&LAS HERAS GENERAL AV.",-34.5917637886,-58.3918944155,0
4353,"ANTARTIDA ARGENTINA AV.&&SAN MARTIN",-34.5903350342,-58.3709574768,0
4361,"GUZMAN&&LEIVA",-34.5918912897,-58.4494516079,0
4365,"LOPEZ, CARLOS ANTONIO&&SAN NICOLAS",-34.5919538368,-58.5135665064,0
4370,"CASTILLO&&THAMES",-34.5920453286,-58.4374615368,0
4371,"DARWIN&&RAMIREZ DE VELASCO, JUAN",-34.5920545522,-58.442624833,0
4385,"GORRITI&&SCALABRINI ORTIZ, RAUL AV.",-34.5921787545,-58.426866809,0
4397,"DEL LIBERTADOR AV.&&ESMERALDA",-34.59107842,-58.377859407,0
4401,"CONCORDIA&&SAN MARTIN AV.",-34.5924017485,-58.5090482644,0
4412,"CAMPANA&&HABANA",-34.5925219422,-58.5047673149,0
4413,"BERUTI&&PUEYRREDON AV.",-34.5925381931,-58.4014888244,0
4414,"BALBOA&&PAZ SOLDAN",-34.5925802261,-58.4660064636,0
4415,"LAPRIDA&&SANTA FE AV.",-34.5925709279,-58.4060845582,0
4416,"LAS HERAS, GENERAL&&RODRIGUEZ PEÑA",-34.5925734733,-58.3908586383,0
4423,"DEL LIBERTADOR AV.&&RAMOS MEJIA, JOSE MARIA, DR. A",-34.5926556043,-58.3754440126,0
4431,"LIBERTAD&&QUINTANA, MANUEL, PRES.",-34.5927371727,-58.3844394275,0
4452,"JUNCAL&&URUGUAY",-34.5928298614,-58.3875701498,0
4455,"9 DE JULIO AV.&&JUNCAL",-34.5928339552,-58.3822139191,0
4456,"JUNCAL&&PELLEGRINI, CARLOS",-34.5928344741,-58.3816190945,0
4461,"BASAVILBASO&&DEL LIBERTADOR AV.",-34.5918540057,-58.3766740882,0
4483,"AGUERO&&CHARCAS",-34.5930833274,-58.4083764797,0
4490,"LADINES&&PAZ, GRAL. AV.",-34.5932507642,-58.5199847787,0
4515,"DORREGO AV.&&RODNEY",-34.5936100811,-58.4497203373,0
4521,"ALEM, LEANDRO N. AV.&&SAN MARTIN",-34.5936445623,-58.3739136803,0
4522,"GILARDI, GILARDO&&SAN MARTIN",-34.5920965396,-58.3726296661,0
4528,"MANSILLA, LUCIO NORBERTO, GENERAL&&SANCHEZ DE BUST",-34.5931058488,-58.4115670664,0
4538,"CAMPANA&&CARRIL, SALVADOR MARIA DEL AV.",-34.5939535265,-58.5034705511,0
4547,"ECUADOR&&SANTA FE AV.",-34.5940773057,-58.4036163947,0
4548,"BULNES&&HONDURAS AV.",-34.5940854315,-58.4164204168,0
4565,"AGUIRRE&&SERRANO",-34.594173058,-58.4389175184,0
4570,"ANCHORENA, TOMAS MANUEL DE, DR.&&CHARCAS",-34.5942093391,-58.4060929727,0
4597,"PUEYRREDON AV.&&SANTA FE AV.",-34.5944423199,-58.4023508412,0
4600,"FLORIDA&&SAN MARTIN",-34.5944775873,-58.3744459895,0
4604,"ARENALES&&MAIPU AV.",-34.5945576384,-58.3768687659,0
4610,"THAMES&&VERA",-34.5945616487,-58.4418811132,0
4630,"RAMIREZ DE VELASCO, JUAN&&SERRANO",-34.5948334956,-58.4400211618,0
4652,"MAIPU AV.&&SANTA FE AV.",-34.5950279427,-58.3776893023,0
4654,"GRIVEO&&PAZ, GRAL. AV.",-34.5950755496,-58.5208083198,0
4658,"FLORIDA&&ROJAS, RICARDO, DR.",-34.5950710829,-58.3746884883,0
4661,"CHORROARIN AV.&&ZABALA, JOAQUIN, DR.",-34.5951147865,-58.4771155028,0
4662,"ESMERALDA&&SANTA FE AV.",-34.5950997106,-58.3785051434,0
4674,"ASUNCION&&CAMPANA",-34.595353538,-58.5022015754,0
4697,"CABRERA, JOSE A.&&PRINGLES",-34.5955304839,-58.4247516714,0
4708,"BRAVO, MARIO&&GORRITI",-34.5955974567,-58.415048829,0
4713,"LIBERTAD&&SANTA FE AV.",-34.5955918494,-58.3843037098,0
7981,"MAZA&&MEXICO",-34.6197304688,-58.4152125623,0
4718,"GURRUCHAGA&&RAMIREZ DE VELASCO, JUAN",-34.5956999721,-58.4392100237,0
4719,"SANTA FE AV.&&TALCAHUANO",-34.595678695,-58.3857516925,0
4725,"PARANA&&SANTA FE AV.",-34.5957639567,-58.3884236894,0
4730,"RIOBAMBA&&SANTA FE AV.",-34.5958084161,-58.3946899214,0
4731,"CHARCAS&&PUEYRREDON AV.",-34.5958242684,-58.4028251973,0
4742,"DELLA PAOLERA, CARLOS M.&&MADERO, EDUARDO AV.",-34.5959269137,-58.3704827799,0
4747,"PAZ, GRAL. AV.",-34.5917636326,-58.5197955621,0
4748,"PAZ, GRAL. AV.",-34.586325677,-58.517218795,0
4753,"CAMPANA&&MORAN, PEDRO",-34.5960411408,-58.5015775833,0
4771,"MAIPU&&SANTA FE AV.",-34.595738489,-58.3769771746,0
4778,"ALVEAR, MARCELO T. DE&&FLORIDA",-34.5962443048,-58.3754175817,0
4779,"ALVEAR, MARCELO T. DE",-34.5962699819,-58.3762634574,0
4786,"CORRIENTES AV.&&SERRANO",-34.596351378,-58.4425916628,0
4806,"MANSILLA, LUCIO NORBERTO, GENERAL&&PUEYRREDON AV.",-34.5965664485,-58.4030799726,0
4810,"ACEVEDO&&RAMIREZ DE VELASCO, JUAN",-34.596614392,-58.4383527822,0
4815,"BULNES&&CABRERA, JOSE A.",-34.596645553,-58.4169987564,0
4833,"LLAVALLOL&&MORAN, PEDRO",-34.5968691771,-58.5029176385,0
4835,"ALVEAR, MARCELO T. DE&&LIBERTAD",-34.5969017181,-58.3841777933,0
4842,"ASUNCION&&CONCORDIA",-34.5970083172,-58.5048740376,0
4858,"LAMARCA, EMILIO&&NUEVA YORK",-34.5971479172,-58.5068352125,0
4859,"BUTTY, E., ING.&&MADERO, EDUARDO AV.",-34.5971347937,-58.3699866468,0
4875,"ALVEAR, MARCELO T. DE&&AYACUCHO",-34.5972977471,-58.3961029807,0
4894,"MALABIA&&RAMIREZ DE VELASCO, JUAN",-34.5975392966,-58.4374843624,0
4895,"PARAGUAY&&PUEYRREDON AV.",-34.5975381069,-58.4034135329,0
4905,"LEIVA&&WARNES AV.",-34.5976949758,-58.4559211942,0
4938,"CORDOBA AV.&&SANCHEZ DE BUSTAMANTE",-34.5979481802,-58.4132550527,0
4956,"CORDOBA AV.&&ECUADOR",-34.5980403603,-58.4055890788,0
4958,"PADILLA&&SERRANO",-34.5980630115,-58.4446934796,0
4959,"ANCHORENA, TOMAS MANUEL DE, DR.&&CORDOBA AV.",-34.5980683763,-58.4081506685,0
4963,"AGUERO&&CORDOBA AV.",-34.5980921446,-58.4102967537,0
4966,"ACEVEDO&&CORRIENTES AV.",-34.5981121961,-58.4406941401,0
4993,"CORDOBA AV.&&MADERO, EDUARDO AV.",-34.5983204749,-58.3695166964,0
5001,"CORDOBA AV.&&PUEYRREDON AV.",-34.5984544707,-58.4037244018,0
5004,"RAMIREZ DE VELASCO, JUAN&&SCALABRINI ORTIZ, RAUL A",-34.5984851064,-58.4365963292,0
5018,"CORDOBA AV.&&SAN MARTIN",-34.5986218328,-58.3741913669,0
5031,"GONZALEZ, JOAQUIN V.&&NUEVA YORK",-34.59875776,-58.5094402645,0
5038,"CORDOBA AV.&&PASO",-34.5987954301,-58.403085688,0
5039,"CORDOBA AV.&&MAIPU",-34.5988074756,-58.3768429879,0
5043,"BULNES&&TUCUMAN",-34.5988771192,-58.4175100323,0
5054,"CORDOBA AV.&&SUIPACHA",-34.5989708384,-58.3797459609,0
5080,"CORDOBA AV.&&LIBERTAD",-34.5991594052,-58.3840323218,0
5083,"ARAOZ&&RAMIREZ DE VELASCO, JUAN",-34.5991953225,-58.435931994,0
5106,"MADERO, EDUARDO AV.&&SANCHEZ DE THOMPSON, MARIQUIT",-34.5993532835,-58.3690767434,0
5116,"CORDOBA AV.&&MONTEVIDEO",-34.5994401233,-58.3896676187,0
5135,"CALLAO AV.&&CORDOBA AV.",-34.5996364199,-58.3929341776,0
5142,"AYACUCHO&&CORDOBA AV.",-34.5997026985,-58.3958195757,0
5146,"GURRUCHAGA&&MURILLO",-34.5997536804,-58.4447495666,0
5154,"GUARDIA VIEJA&&LAMBARE",-34.599809419,-58.429736246,0
5166,"PUEYRREDON AV.&&SAN LUIS",-34.5998953498,-58.4041828359,0
5179,"PASO&&SAN LUIS",-34.5999934339,-58.4032846198,0
5183,"ALVAREZ, JULIAN&&RAMIREZ DE VELASCO, JUAN",-34.6000332562,-58.4351496515,0
5186,"MATURIN&&OROÑO, NICASIO",-34.6000952711,-58.4603372873,0
5187,"GUARDIA VIEJA&&PRINGLES",-34.6000943422,-58.4267570672,0
5203,"PAZ, MARCOS&&VALLEJOS",-34.6001666258,-58.5207869605,0
5214,"ARAOZ&&CORRIENTES AV.",-34.6002638008,-58.4376017284,0
5220,"CONDARCO&&NOGOYA",-34.6003465842,-58.4874447163,0
5231,"MADERO, EDUARDO AV.&&TUCUMAN",-34.6004350712,-58.3686358144,0
5249,"CORDOBA AV.&&URUGUAY AV.",-34.5992894191,-58.3868094795,0
5250,"CAMARGO&&SCALABRINI ORTIZ, RAUL AV.",-34.600604702,-58.4399572958,0
5265,"ALVAREZ, JULIAN&&CORRIENTES AV.",-34.6007251296,-58.4362235245,0
5266,"MISTRAL, GABRIELA&&PAZ, GRAL. AV.",-34.6007198308,-58.5235043738,0
5278,"RODRIGUEZ PEÑA&&VIAMONTE",-34.6007561221,-58.391427338,0
5281,"EMPEDRADO&&GUTIERREZ, RICARDO",-34.6007942601,-58.4818489614,0
5285,"CUCHA CUCHA&&SEGUI, F. J., ALTE.",-34.6008186224,-58.4621213091,0
5290,"CALLAO AV.&&VIAMONTE",-34.6008063423,-58.3927689067,0
5299,"RECONQUISTA&&TUCUMAN",-34.6008535066,-58.3725940887,0
5300,"RIOBAMBA&&VIAMONTE",-34.6008712546,-58.3942141114,0
5348,"CORRIENTES AV.&&LAVALLEJA",-34.6011840501,-58.4348526304,0
5359,"PADILLA&&SCALABRINI ORTIZ, RAUL AV.",-34.6012978819,-58.4410904061,0
5366,"ARAOZ&&CAMARGO",-34.6013140243,-58.4393119647,0
5373,"ARTIGAS, JOSE GERVASIO, GRAL.&&EMPEDRADO",-34.6014149223,-58.4821855057,0
5379,"CUCHA CUCHA&&FRAGATA PRES. SARMIENTO",-34.6014405404,-58.4591947354,0
5383,"JUSTO, JUAN B. AV.&&RODRIGUEZ, MANUEL A., GENERAL",-34.6014728642,-58.454039624,0
5385,"CHIVILCOY AV.&&MORAN, PEDRO",-34.6014699136,-58.5103644548,0
5387,"MALABIA&&MURILLO",-34.6014872742,-58.4428342189,0
5388,"LAVALLEJA&&VERA",-34.6014959979,-58.4353374605,0
5405,"TUCUMAN&&URUGUAY AV.",-34.6016527649,-58.3866973631,0
5407,"CUBAS, JOSE&&JUAREZ, BENITO",-34.6016693833,-58.5214065593,0
5415,"CUENCA&&GUTIERREZ, RICARDO",-34.6017349429,-58.4950159055,0
5416,"MADERO, EDUARDO AV.&&OCAMPO, VICTORIA",-34.6017023077,-58.3683177279,0
5438,"PUEYRREDON AV.&&TUCUMAN",-34.6018388482,-58.4048050483,0
5441,"MALABIA&&WARNES AV.",-34.601871231,-58.4433030521,0
5443,"BAIGORRIA&&TERRADA",-34.601893508,-58.4878042265,0
5448,"RODRIGUEZ PEÑA&&TUCUMAN",-34.6019128264,-58.3913023389,0
5545,"CORRIENTES AV.&&PRINGLES",-34.6025648359,-58.4271056821,0
5563,"MARECHAL, LEOPOLDO&&WARNES AV.",-34.6027114602,-58.4412874479,0
5567,"GRANADA, NICOLAS&&SEGUI, F. J., ALTE.",-34.6027348532,-58.4627184764,0
5575,"SASTRE, MARCOS&&TERRADA",-34.6028088228,-58.4869939557,0
5576,"CUCHA CUCHA&&JUSTO, JUAN B. AV.",-34.6028180189,-58.456020302,0
5583,"CORRIENTES AV.&&GASCON",-34.6028618711,-58.4241049281,0
5584,"MADERO, EDUARDO AV.&&ROSALES AV.",-34.602832084,-58.368190053,0
5585,"GUEVARA, TRINIDAD&&MOREAU DE JUSTO, ALICIA AV.",-34.6027454251,-58.3672426639,0
5600,"CHIVILCOY AV.&&NAVARRO",-34.6029484022,-58.5090269637,0
5601,"JAURES, JEAN&&LAVALLE",-34.6029474672,-58.4084678442,0
5609,"CARRIL, SALVADOR MARIA DEL AV.&&GUTIERREZ, RICARDO",-34.6030048213,-58.5182234933,0
5618,"CAMARGO&&LAVALLEJA",-34.6030423231,-58.4377411439,0
5621,"HELGUERA&&NOGOYA",-34.6030585024,-58.4921016255,0
5625,"LAVALLE&&RODRIGUEZ PEÑA",-34.603088492,-58.3908507014,0
5630,"CALLAO AV.&&LAVALLE",-34.6031546087,-58.3923903942,0
5636,"BAHIA BLANCA&&BEIRO, FRANCISCO AV.",-34.6031822901,-58.5074674116,0
5660,"LAVALLE&&PUEYRREDON AV.",-34.6033422791,-58.4051587193,0
5678,"BRAVARD&&WARNES AV.",-34.6034968199,-58.4393941206,0
5679,"GARCIA, JUAN AGUSTIN&&SANCHEZ",-34.6035022998,-58.4682775743,0
5686,"CANTILO, JOSE LUIS&&GUALEGUAYCHU",-34.6035255663,-58.5118332343,0
5698,"CORRIENTES AV.&&SUIPACHA",-34.6035764257,-58.3794750271,0
5699,"BRAVO, MARIO&&CORRIENTES AV.",-34.6035976777,-58.4167488469,0
5701,"CUCHA CUCHA&&JUSTO, JUAN B. AV.",-34.6027726621,-58.4559532791,0
5713,"LAVALLEJA&&WARNES AV.",-34.6037557301,-58.4388500751,0
5720,"CARACAS&&CARRANZA, ADOLFO P.",-34.603816095,-58.4768070568,0
5721,"LAMAS, ANDRES&&MIGUEL ANGEL",-34.6038240833,-58.4717793003,0
5723,"CUENCA&&NOGOYA",-34.6038372052,-58.4934389562,0
5724,"CORRIENTES AV.&&LIBERTAD",-34.6038273672,-58.3837151477,0
5727,"ALVAREZ JONTE&&LAMAS, ANDRES",-34.6038831031,-58.4717100642,0
5729,"CAMARONES&&SEGUI, F. J., ALTE.",-34.6038908571,-58.4628762859,0
5735,"CORRIENTES AV.&&TALCAHUANO",-34.6039107519,-58.3851362775,0
5743,"CORRIENTES AV.&&URUGUAY AV.",-34.6039977349,-58.3865945404,0
5746,"ANCHORENA, TOMAS MANUEL DE, DR.&&CORRIENTES AV.",-34.6040295104,-58.4103470638,0
5755,"ARGERICH&&SASTRE, MARCOS",-34.6041061354,-58.4892231938,0
5757,"MADERO, EDUARDO AV.&&SARMIENTO",-34.6040550925,-58.3680518776,0
5762,"CORRIENTES AV.&&JAURES, JEAN",-34.6041182491,-58.4089173626,0
5766,"FIGUEROA, D. APOLINARIO, CORONEL&&OLAYA",-34.6041595373,-58.4453216036,0
5767,"BIARRITZ&&GAVILAN",-34.6041736174,-58.4749322905,0
5772,"BEIRO, FRANCISCO AV.&&MERCEDES",-34.604250472,-58.5091928202,0
5773,"CORRIENTES AV.&&ECUADOR",-34.6042566983,-58.4078146741,0
5787,"CORRIENTES AV.&&RODRIGUEZ PEÑA",-34.6043332824,-58.3908228772,0
5799,"CALLAO AV.&&CORRIENTES AV.",-34.6044352731,-58.3922896577,0
5804,"CORRIENTES AV.&&RIOBAMBA",-34.604461882,-58.3938608369,0
5814,"FERRARI&&MARECHAL, LEOPOLDO",-34.6045236491,-58.4400345551,0
5816,"CORRIENTES AV.&&JUNIN",-34.6045328067,-58.396782681,0
5820,"CORRIENTES AV.&&PUEYRREDON AV.",-34.6045629391,-58.4054722285,0
5822,"CONCORDIA&&NAZARRE",-34.6045834422,-58.4985849035,0
5831,"PUEYRREDON, HONORIO, DR. AV.&&VIALE, LUIS",-34.6046444588,-58.4477755711,0
5834,"LASTRA AV.&&PAZ, GRAL. AV.",-34.6046519357,-58.5253241307,0
5844,"BAIGORRIA&&CUENCA",-34.6047151524,-58.4926688301,0
5856,"SARMIENTO&&SUIPACHA",-34.604837299,-58.3793871426,0
5858,"HELGUERA&&SASTRE, MARCOS",-34.6048740987,-58.4905428809,0
5866,"BRAVARD&&GALLARDO, ANGEL AV.",-34.6049590908,-58.4379763917,0
5876,"CAMARONES&&TRELLES, MANUEL R.",-34.6050246571,-58.4655254023,0
5883,"CANTILO, JOSE LUIS&&SEGUROLA AV.",-34.6050894131,-58.5143699068,0
5889,"GALLO&&GOMEZ, VALENTIN",-34.6051183544,-58.4134147888,0
5906,"GOMEZ, VALENTIN&&JAURES, JEAN",-34.6052453019,-58.4093801232,0
5909,"BOYACA&&GARCIA, JUAN AGUSTIN",-34.6052868743,-58.4724384952,0
5914,"ALVAREZ JONTE&&GAVILAN",-34.6053106899,-58.4740165296,0
5936,"BRAVO, MARIO&&SARMIENTO",-34.6054928923,-58.417054743,0
5943,"RODRIGUEZ PEÑA&&SARMIENTO",-34.6055322241,-58.3907903226,0
5946,"GOMEZ, VALENTIN&&PUEYRREDON AV.",-34.605571238,-58.4057159685,0
5947,"CONDARCO&&LASCANO",-34.6055884207,-58.4827278787,0
5954,"CUENCA&&SASTRE, MARCOS",-34.6056348672,-58.4918503253,0
5957,"CALLAO AV.&&SARMIENTO",-34.6056462227,-58.392197239,0
5968,"RIOBAMBA&&SARMIENTO",-34.6057593429,-58.393697507,0
5984,"PUJOL&&SAN MARTIN AV.",-34.6053962304,-58.4549830446,0
5985,"PERON, JUAN DOMINGO, TTE. GENERAL&&SAENZ PEÑA, ROQ",-34.6058890382,-58.3775119892,0
5996,"RODRIGUEZ, MANUEL A., GENERAL&&VIALE, LUIS",-34.605978605,-58.4499139615,0
6011,"NAZARRE&&SAN NICOLAS",-34.6060389988,-58.5010322222,0
6015,"CAMARONES&&TERRERO",-34.6061067836,-58.4680584145,0
6026,"GALICIA&&SAN MARTIN AV.",-34.6061667075,-58.4520158661,0
6030,"ANTEZANA&&PUEYRREDON, HONORIO, DR. AV.",-34.6061955187,-58.4465647468,0
6034,"LARREA&&SARMIENTO",-34.6062584746,-58.4020456432,0
6039,"PERON, JUAN DOMINGO, TTE. GENERAL&&TALCAHUANO",-34.6063466124,-58.3849960178,0
6048,"BEIRO, FRANCISCO AV.&&SANABRIA",-34.6055168148,-58.5112430553,0
6050,"CUCHA CUCHA&&SAN MARTIN AV.",-34.6059225623,-58.4529595909,0
6054,"CARACAS&&GARCIA, JUAN AGUSTIN",-34.6064650773,-58.4747434446,0
6055,"CASTELLI&&SARMIENTO",-34.6064578609,-58.4046609361,0
6072,"MAGARIÑOS CERVANTES, A.&&SANCHEZ",-34.6065574173,-58.4659597321,0
6073,"PUEYRREDON AV.&&SARMIENTO",-34.6065457977,-58.4059475581,0
6079,"GALLARDO, ANGEL AV.&&OLAYA",-34.6066117411,-58.4429812452,0
6090,"CANTILO, JOSE LUIS&&JUAREZ, BENITO",-34.6066536292,-58.5169068451,0
6098,"JAURES, JEAN&&SARMIENTO",-34.6067168534,-58.4099778427,0
6103,"MELINCUE&&SAN NICOLAS",-34.6067738363,-58.5004489588,0
6111,"LLAVALLOL&&SASTRE, MARCOS",-34.6068524761,-58.4939420476,0
6151,"FLORIDA&&SAENZ PEÑA, ROQUE, PRES. DIAGONAL NORTE A",-34.6072021279,-58.3750057299,0
6199,"MITRE, BARTOLOME&&TALCAHUANO",-34.6075273545,-58.3849193615,0
6205,"BAIGORRIA&&LAMARCA, EMILIO",-34.6075895358,-58.4976194679,0
6228,"LAMAS, ANDRES&&MAGARIÑOS CERVANTES, A.",-34.6077493134,-58.4687528353,0
6229,"PERON, JUAN DOMINGO, TTE. GENERAL&&PUEYRREDON AV.",-34.6077430095,-58.4061225311,0
6236,"RIVADAVIA AV.&&SAENZ PEÑA, ROQUE, PRES. DIAGONAL N",-34.6079395451,-58.3735749838,0
6258,"RECONQUISTA&&RIVADAVIA AV.",-34.6079283718,-58.3721820807,0
6268,"CONCORDIA&&SASTRE, MARCOS",-34.6080294999,-58.4959775157,0
6284,"BEIRO, FRANCISCO AV.&&JUAREZ, BENITO",-34.6081641019,-58.5155415555,0
6306,"DIAZ VELEZ AV.&&HIDALGO",-34.6083830768,-58.4415937674,0
6325,"BRAVO, MARIO&&DIAZ VELEZ AV.",-34.6085383891,-58.4175098395,0
6333,"DIAZ VELEZ AV.&&MEDRANO AV.",-34.6085705397,-58.4215398881,0
6341,"JUSTO, JUAN B. AV.&&SANCHEZ",-34.6086067664,-58.4644023152,0
6343,"DE MAYO AV.&&PERU",-34.6086028703,-58.3749344901,0
6356,"RIVADAVIA AV.&&SANTIAGO DEL ESTERO",-34.6086872682,-58.3848695523,0
6357,"MITRE, BARTOLOME&&PASO",-34.6086978435,-58.4034001555,0
6370,"CAMPICHUELO&&DIAZ VELEZ AV.",-34.6087792403,-58.4361247492,0
6378,"DE MAYO AV.&&PIEDRAS",-34.6088007494,-58.3777850423,0
6381,"MITRE, BARTOLOME&&PUEYRREDON AV.",-34.6088396022,-58.4060321766,0
6389,"GAVILAN&&MAGARIÑOS CERVANTES, A.",-34.6089194026,-58.4712725231,0
6392,"RIVADAVIA AV.&&SAENZ PEÑA, LUIS, PRES.",-34.6089200191,-58.3876599669,0
6393,"ALLENDE&&BEIRO, FRANCISCO AV.",-34.6089464499,-58.5168113909,0
6403,"DE MAYO AV.&&RIVADAVIA AV.",-34.6090108267,-58.388511027,0
6423,"BOLIVAR&&ROCA, JULIO A., PRESIDENTE DIAGONAL SUR A",-34.6090902135,-58.3735048403,0
6424,"ECUADOR&&MITRE, BARTOLOME",-34.609112651,-58.4088374498,0
6428,"JAURES, JEAN&&MITRE, BARTOLOME",-34.6091568546,-58.4103868217,0
6436,"DE MAYO AV.&&SALTA",-34.6091909264,-58.3834418172,0
6438,"PERU&&YRIGOYEN, HIPOLITO",-34.6091911598,-58.374895283,0
6439,"ANCHORENA, TOMAS MANUEL DE, DR.&&MITRE, BARTOLOME",-34.6092225932,-58.411781591,0
6451,"MITRE, BARTOLOME&&PUEYRREDON AV.",-34.6092986117,-58.4060089496,0
6452,"ENTRE RIOS AV.&&RIVADAVIA AV.",-34.6092912029,-58.3919549629,0
6464,"RIVADAVIA AV.&&SARANDI",-34.6093869569,-58.3948670739,0
6492,"PASCO&&RIVADAVIA AV.",-34.6095807114,-58.3975927529,0
6508,"CALDERON DE LA BARCA, PEDRO&&PAZ, GRAL. AV.",-34.6096968306,-58.5277037417,0
6510,"MITRE, BARTOLOME&&SALGUERO, JERONIMO",-34.6097111863,-58.4199162298,0
6519,"AZCUENAGA&&RIVADAVIA AV.",-34.6097982882,-58.400473615,0
6523,"SANTIAGO DEL ESTERO&&YRIGOYEN, HIPOLITO",-34.6098585929,-58.3848239044,0
6528,"ACUÑA DE FIGUEROA, FRANCISCO&&MITRE, BARTOLOME",-34.6099054905,-58.422800914,0
6546,"PASO&&RIVADAVIA AV.",-34.6099735994,-58.4033260741,0
6551,"MISIONES&&RIVADAVIA AV.",-34.6100414623,-58.4045770747,0
6568,"PUEYRREDON AV.&&RIVADAVIA AV.",-34.6101198717,-58.4059686088,0
6581,"CATAMARCA&&RIVADAVIA AV.",-34.6102367867,-58.4076676871,0
6590,"CAMPICHUELO&&JAURETCHE, ARTURO",-34.6102963493,-58.4357000823,0
6595,"ECUADOR&&RIVADAVIA AV.",-34.6103104417,-58.4085844639,0
6599,"LA RIOJA&&RIVADAVIA AV.",-34.6103345904,-58.4088848611,0
6615,"JAURES, JEAN&&RIVADAVIA AV.",-34.6104386868,-58.4103489572,0
6633,"ANCHORENA, TOMAS MANUEL DE, DR.&&RIVADAVIA AV.",-34.6105387892,-58.4117357202,0
6646,"ESPARZA&&RIVADAVIA AV.",-34.610637248,-58.4131028971,0
6673,"ACOYTE AV.&&VALLESE, FELIPE",-34.6107986671,-58.4393019971,0
6682,"LINIERS VIRREY&&RIVADAVIA AV.",-34.6108339039,-58.4158255917,0
6684,"GUALEGUAYCHU&&NOGOYA",-34.6108507814,-58.5052686566,0
6690,"MITRE, BARTOLOME&&RIO DE JANEIRO",-34.6109146732,-58.4303319264,0
6698,"MAZA&&RIVADAVIA AV.",-34.6109415987,-58.4173420865,0
6704,"ALBERTI&&YRIGOYEN, HIPOLITO",-34.610997719,-58.4016727548,0
6706,"ALSINA, ADOLFO&&SANTIAGO DEL ESTERO",-34.6110042395,-58.3848197601,0
6718,"RIVADAVIA AV.&&SALGUERO, JERONIMO",-34.6111224033,-58.4197199315,0
6720,"BEIRO, FRANCISCO AV.&&BERMUDEZ",-34.6111376681,-58.5204044153,0
6724,"MISIONES&&YRIGOYEN, HIPOLITO",-34.6111782684,-58.4044932276,0
6728,"MORENO&&PASEO COLON AV.",-34.611172429,-58.3692237692,0
6740,"JUJUY AV.&&YRIGOYEN, HIPOLITO",-34.6112629255,-58.4058402291,0
6744,"CALDERON DE LA BARCA, PEDRO&&MORAN, PEDRO",-34.6112724643,-58.5257126023,0
6753,"DEFENSA&&MORENO",-34.6113015853,-58.3719922004,0
6760,"CATAMARCA&&YRIGOYEN, HIPOLITO",-34.6113696094,-58.4073388324,0
6767,"NAZCA AV.&&SAN BLAS",-34.611413493,-58.4814199899,0
6777,"MEDRANO AV.&&RIVADAVIA AV.",-34.6114794823,-58.4210114451,0
6779,"ARANGUREN, JUAN F., DR.&&CAMPICHUELO",-34.6115036129,-58.4353622138,0
6780,"MORENO&&PERU",-34.6114760443,-58.3747908198,0
6793,"CHACABUCO&&MORENO",-34.6115648127,-58.3762091693,0
6798,"PAINE, AIME&&VILLAFLOR, AZUCENA",-34.6116050151,-58.3618853359,0
6807,"AMBERES&&GAONA AV.",-34.6116877363,-58.4541194077,0
6830,"24 DE NOVIEMBRE&&YRIGOYEN, HIPOLITO",-34.6118562497,-58.4116834588,0
6865,"GORRITI JUANA MANUELA&&VILLAFLOR, AZUCENA",-34.6120929095,-58.3655970115,0
6870,"ALBERTI&&ALSINA, ADOLFO",-34.6121800682,-58.4015520369,0
6879,"ASUNCION&&PAZ, GRAL. AV.",-34.6122598847,-58.5289096154,0
6889,"ALSINA, ADOLFO&&MISIONES",-34.6123489911,-58.4043528817,0
6898,"CAMARONES&&NAZCA AV.",-34.6124165803,-58.4806215849,0
6900,"DIAZ, CESAR, GRAL.&&ESTADO PLURINACIONAL DE BOLIVI",-34.612419833,-58.4752226177,0
6902,"BELGRANO AV.&&PASEO COLON AV.",-34.6123287509,-58.3695618676,0
6904,"ALSINA, ADOLFO&&JUJUY AV.",-34.6124205598,-58.4055698452,0
6908,"AMBROSETTI, JUAN B.&&ARANGUREN, JUAN F., DR.",-34.6124725257,-58.4377311844,0
6914,"ALSINA, ADOLFO&&CATAMARCA",-34.6125033866,-58.4069441259,0
6923,"BELGRANO AV.&&BOLIVAR",-34.6125536447,-58.3733201944,0
6924,"GASCON&&RIVADAVIA AV.",-34.6125969114,-58.4235845181,0
6925,"ALSINA, ADOLFO&&LA RIOJA",-34.6126101794,-58.4087157469,0
6933,"ENTRE RIOS AV.&&MORENO",-34.6126621201,-58.3917600889,0
6950,"ACOYTE AV.&&ARANGUREN, JUAN F., DR.",-34.612793021,-58.4384022869,0
6976,"BEIRO, FRANCISCO AV.&&CALDERON DE LA BARCA, PEDRO",-34.6130138047,-58.5235119699,0
6977,"GAONA AV.&&SEGUI, F. J., ALTE.",-34.6130361933,-58.4573288516,0
6981,"LINIERS VIRREY&&YRIGOYEN, HIPOLITO AV.",-34.6130523277,-58.4147863496,0
7002,"CANTILO, JOSE LUIS&&OTTAWA",-34.6131935472,-58.5268023612,0
7017,"FLORES, VENANCIO, GRAL.&&RIO DE JANEIRO",-34.6133273268,-58.4301289297,0
7019,"BELGRANO AV.&&SANTIAGO DEL ESTERO",-34.6133346599,-58.3846593059,0
7031,"MAGARIÑOS CERVANTES, A.&&NAZCA AV.",-34.6134222682,-58.4798211168,0
7034,"JUJUY AV.&&MORENO",-34.6134233227,-58.4052794593,0
7037,"BELGRANO AV.&&SAN JOSE",-34.6134336663,-58.3860785399,0
7043,"HUERGO, ING. AV.&&REPUBLICA BOLIVARIANA DE VENEZUE",-34.6133907272,-58.3669939487,0
7057,"BELGRANO AV.&&SAENZ PEÑA, LUIS, PRES.",-34.6135354152,-58.3875177917,0
7060,"ARANGUREN, JUAN F., DR.&&HIDALGO",-34.6135852602,-58.4400614139,0
7084,"BELGRANO AV.&&SOLIS",-34.6137294092,-58.3903693978,0
7091,"FRAGATA PRES. SARMIENTO&&PLANES",-34.6137939079,-58.4534289722,0
7096,"BELGRANO AV.&&ENTRE RIOS AV.",-34.6138240094,-58.3917135215,0
7101,"BOEDO&&YRIGOYEN, HIPOLITO AV.",-34.6138724468,-58.417246008,0
7103,"ALVAREZ, DONATO, TTE. GRAL.&&GAONA AV.",-34.6138849519,-58.4594488077,0
7112,"BELGRANO AV.&&COMBATE DE LOS POZOS",-34.613930176,-58.3932354068,0
7116,"BAHIA BLANCA&&LASCANO",-34.6139619739,-58.4977743902,0
7117,"LA RIOJA&&MORENO",-34.6139659913,-58.4086016566,0
7121,"MORENO&&URQUIZA, GRAL.",-34.6139940207,-58.4098750638,0
7127,"24 DE NOVIEMBRE&&MORENO",-34.6140523195,-58.4113148076,0
7128,"ACOYTE AV.&&AVELLANEDA",-34.6140750995,-58.4378134871,0
7139,"BELGRANO AV.&&RINCON",-34.6141356843,-58.3961380529,0
7154,"CAMPICHUELO&&CENTENARIO",-34.6142915686,-58.4339937264,0
7155,"BELGRANO AV.&&PICHINCHA",-34.6142797887,-58.3987812194,0
7169,"MORAN, PEDRO&&PAZ, GRAL. AV.",-34.6143593123,-58.5298869112,0
7188,"ALBERTI&&BELGRANO AV.",-34.6144306322,-58.4013560763,0
7211,"BELGRANO AV.&&JUJUY AV.",-34.6146383053,-58.4049145563,0
7215,"HUERGO, ING. AV.&&MEXICO",-34.614575988,-58.3668593591,0
7232,"HELGUERA&&MAGARIÑOS CERVANTES, A.",-34.614768321,-58.4823800135,0
7241,"BELGRANO AV.&&CATAMARCA",-34.6148027175,-58.4061975896,0
7263,"ENTRE RIOS AV.&&REPUBLICA BOLIVARIANA DE VENEZUELA",-34.6149159757,-58.3916800454,0
7285,"BELGRANO AV.&&LA RIOJA",-34.6150854239,-58.4084035601,0
7294,"FRANKLIN&&TRELLES, MANUEL R.",-34.6151552741,-58.4602969732,0
7317,"BEIRO, FRANCISCO AV.&&PODESTA, JOSE J.",-34.6153139908,-58.526814879,0
7336,"MEXICO&&SANTIAGO DEL ESTERO",-34.6154404891,-58.3844836371,0
7340,"LOPE DE VEGA AV.&&VARELA, JOSE PEDRO",-34.6155081157,-58.5231175964,0
7363,"EYLE, PETRONA&&HUERGO, ING. AV.",-34.615623934,-58.3667388091,0
7364,"EYLE, PETRONA&&MOREAU DE JUSTO, ALICIA AV.",-34.6155708137,-58.3660032514,0
7376,"FRAGATA PRES. SARMIENTO&&NEUQUEN",-34.6157162069,-58.4520365506,0
7381,"ARTIGAS, JOSE GERVASIO, GRAL.&&GALICIA",-34.615751431,-58.4707232492,0
7386,"JUSTO, JUAN B. AV.&&TRES ARROYOS",-34.6157666579,-58.4734433288,0
7406,"ALMAGRO&&MAGARIÑOS CERVANTES, A.",-34.6158687621,-58.484487811,0
7425,"ACOYTE&&NEUQUEN",-34.6159427506,-58.4375783279,0
7433,"GARCIA LORCA, FEDERICO&&NEUQUEN",-34.6159956336,-58.4459219633,0
7462,"MEXICO&&PASCO",-34.6161632712,-58.3977388481,0
7487,"CORTINA&&PAZ, GRAL. AV.",-34.6163972753,-58.5304387253,0
7490,"PAZ, GRAL. AV.",-34.6087034834,-58.5277441511,0
7491,"PAZ, GRAL. AV.",-34.5959425559,-58.5217821483,0
7494,"BELAUSTEGUI, LUIS, DR.&&NAZCA AV.",-34.61644268,-58.4774167864,0
7508,"ALBERTI&&MEXICO",-34.6165591563,-58.4011699066,0
7555,"JUSTO, JUAN B. AV.&&LOS PIRINEOS",-34.6164412019,-58.4747171295,0
7560,"SEGUI, F. J., ALTE.&&VALLESE, FELIPE",-34.6168276287,-58.4556602079,0
7562,"BEIRO, FRANCISCO AV.&&ESPRONCEDA",-34.6168368458,-58.5287773514,0
7570,"EZCURRA, ENCARNACION&&MOREAU DE JUSTO, ALICIA AV.",-34.6168315641,-58.3658669603,0
7571,"EZCURRA, ENCARNACION&&HUERGO, ING. AV.",-34.6168777805,-58.3665965515,0
7586,"JUJUY AV.&&MEXICO",-34.617043879,-58.4041412926,0
7588,"CHILE&&SARANDI",-34.6170757525,-58.3945496791,0
7596,"LOPE DE VEGA AV.&&TINOGASTA",-34.6171091506,-58.5210110831,0
7603,"CONCORDIA&&MAGARIÑOS CERVANTES, A.",-34.6171711498,-58.4869160909,0
7640,"ALVAREZ JONTE AV.&&SANABRIA",-34.6173738891,-58.5011997937,0
7650,"ESTADO PLURINACIONAL DE BOLIVIA&&VIALE, LUIS",-34.6174414917,-58.4712216321,0
7659,"AGRELO&&LA RIOJA",-34.6174662438,-58.4081245532,0
7697,"NOGOYA&&ROJAS, DIEGO DE",-34.6177667882,-58.5158145343,0
7708,"INDEPENDENCIA AV.&&SANTIAGO DEL ESTERO",-34.6177928079,-58.3843214402,0
7724,"AVELLANEDA&&ESPINOSA",-34.6179008672,-58.4480116156,0
7770,"COMBATE DE LOS POZOS&&INDEPENDENCIA AV.",-34.6182330281,-58.3932020623,0
7780,"AVELLANEDA AV.&&PAYSANDU",-34.6183088047,-58.4489630393,0
7793,"ESTADOS UNIDOS&&PASEO COLON AV.",-34.6183837867,-58.3693021044,0
7805,"CALDERON DE LA BARCA, PEDRO&&NOGOYA",-34.618450784,-58.5165262475,0
7824,"INDEPENDENCIA AV.&&PICHINCHA",-34.6185378273,-58.3989658397,0
7827,"ESTADOS UNIDOS&&LIMA",-34.6185344594,-58.381471091,0
7842,"MAGARIÑOS CERVANTES, A.&&SAN NICOLAS",-34.6186768714,-58.4886774361,0
7865,"INDEPENDENCIA AV.&&JUJUY AV.",-34.6188391596,-58.4035156208,0
7866,"AVELLANEDA AV.&&FRAGATA PRES. SARMIENTO",-34.6188670527,-58.450230651,0
7869,"CEVALLOS, VIRREY&&ESTADOS UNIDOS",-34.6188715547,-58.3889170288,0
7903,"ENTRE RIOS AV.&&ESTADOS UNIDOS",-34.6191082047,-58.3916692038,0
7919,"COMBATE DE LOS POZOS&&ESTADOS UNIDOS",-34.6192358648,-58.3932152746,0
7932,"AZOPARDO&&CALVO, CARLOS",-34.6193081857,-58.3671612309,0
7933,"CALVO, CARLOS&&HUERGO, ING. AV.",-34.6192436524,-58.3663282029,0
7934,"MORENO, JOSE MARIA AV.&&ROSARIO",-34.6193625725,-58.4359151537,0
7941,"AVELLANEDA AV.&&OROÑO, NICASIO",-34.6194255693,-58.4515004092,0
7974,"CALVO, CARLOS&&PERU",-34.6196640338,-58.3743059458,0
7980,"INDEPENDENCIA AV.&&LA RIOJA",-34.6197190743,-58.4077829194,0
7996,"CALVO, CARLOS&&SALTA",-34.6197639281,-58.3829805524,0
8001,"ESTADOS UNIDOS&&JUJUY AV.",-34.6198133164,-58.4032087677,0
8002,"CALVO, CARLOS&&SANTIAGO DEL ESTERO",-34.6198038355,-58.3843482425,0
8004,"HELGUERA&&JUSTO, JUAN B. AV.",-34.6198428248,-58.4783305449,0
8010,"LISTA, RAMON, CORONEL&&PAZ, GRAL. AV.",-34.6198733434,-58.5302389545,0
8019,"AVELLANEDA AV.&&BIEDMA, JOSE JUAN",-34.6199523759,-58.4526988034,0
8044,"BAHIA BLANCA&&MAGARIÑOS CERVANTES, A.",-34.6201492645,-58.4904045044,0
8049,"ROSARIO&&SAN JOSE DE CALASANZ",-34.620184943,-58.4387320468,0
8068,"CALVO, CARLOS&&COMBATE DE LOS POZOS",-34.6204612047,-58.3931684999,0
8075,"GUAYAQUIL&&MORENO, JOSE MARIA AV.",-34.620406365,-58.4355017462,0
8082,"AVELLANEDA AV.&&SEGUI, F. J., ALTE.",-34.62046474,-58.4539756703,0
8087,"GAONA AV.&&NAZCA AV.",-34.6204967234,-58.4741894488,0
8089,"RIVADAVIA AV.&&ROJAS",-34.6205153257,-58.4414637677,0
8091,"HUERGO, ING. AV.&&LANGER, MARIE",-34.6204208839,-58.3661946257,0
8107,"HUMBERTO 1°&&PASEO COLON AV.",-34.6205961714,-58.3684370199,0
8110,"INDEPENDENCIA AV.&&SANCHEZ DE LORIA",-34.6206412306,-58.4125462338,0
8117,"BALCARCE&&HUMBERTO 1°",-34.6206728535,-58.3699775172,0
8134,"BARCO CENTENERA DEL&&RIVADAVIA AV.",-34.6208239965,-58.4411015614,0
8135,"AVELLANEDA AV.&&MORELOS",-34.6208286228,-58.4550227354,0
8139,"INDEPENDENCIA AV.&&MAZA",-34.6208594503,-58.4150954619,0
8150,"DOBLAS&&FORMOSA",-34.6209313433,-58.4310927664,0
8159,"ALBERTI&&CALVO, CARLOS",-34.6209781637,-58.4007751835,0
8167,"ARGERICH&&GAONA AV.",-34.6211786261,-58.4754976419,0
8173,"COLOMBRES&&INDEPENDENCIA AV.",-34.6210915068,-58.4180675602,0
8175,"REPETTO, NICOLAS, DR.&&RIVADAVIA AV.",-34.6211139602,-58.4428901399,0
8181,"CALVO, CARLOS&&JUJUY AV.",-34.62113271,-58.4028047153,0
8183,"BEAUCHEF&&FORMOSA",-34.62115393,-58.4337912118,0
8188,"CASTRO BARROS&&INDEPENDENCIA AV.",-34.6211924273,-58.4194278459,0
8196,"CASTRO&&INDEPENDENCIA AV.",-34.6212710483,-58.4204992792,0
8199,"ARANGUREN, JUAN F., DR.&&BOYACA AV.",-34.6213034528,-58.4604178017,0
8225,"CUENCA&&JUSTO, JUAN B. AV.",-34.6207000181,-58.4794348781,0
8228,"FORMOSA&&RIGLOS",-34.6214750481,-58.4368044044,0
8237,"ENTRE RIOS AV.&&HUMBERTO 1°",-34.6215587313,-58.391556952,0
8241,"AUTOPISTA 25 DE MAYO&&HUERGO, ING. AV.",-34.6215074885,-58.3660713729,0
8242,"AZOPARDO&&SAN JUAN AV.",-34.6215825852,-58.3669021111,0
8245,"MAGARIÑOS CERVANTES, A.&&MERCEDES",-34.6216676005,-58.492210703,0
8246,"HUMBERTO 1°&&SARANDI",-34.6216693409,-58.393948391,0
8252,"PASEO COLON AV.&&SAN JUAN AV.",-34.6216863006,-58.3683153253,0
8260,"PAZ, GRAL. AV.&&VARELA, JOSE PEDRO",-34.621762161,-58.5301245317,0
8262,"AVELLANEDA AV.&&CALCENA",-34.6217892803,-58.4577151438,0
8263,"BALCARCE&&SAN JUAN AV.",-34.6217579757,-58.3697528573,0
8266,"HUMBERTO 1°&&PASCO",-34.6217976039,-58.3967696755,0
8275,"DEFENSA&&SAN JUAN AV.",-34.6218348147,-58.3713367373,0
8277,"MITRE, EMILIO&&RIVADAVIA AV.",-34.6218710478,-58.4444271545,0
8287,"BOLIVAR&&SAN JUAN AV.",-34.6218887983,-58.3728018091,0
8290,"BARCO CENTENERA DEL&&GUAYAQUIL",-34.6219341933,-58.440949292,0
8294,"PERU&&SAN JUAN AV.",-34.621942269,-58.3741672145,0
8300,"CHACABUCO&&SAN JUAN AV.",-34.6220020753,-58.375648214,0
8303,"CALVO, CARLOS&&LA RIOJA",-34.6220491214,-58.4073626727,0
8306,"ESTADOS UNIDOS&&LINIERS VIRREY",-34.6220847444,-58.413685075,0
8308,"HUMBERTO 1°&&MATHEU",-34.6220810066,-58.3995754313,0
8315,"GAINZA, MARTIN DE, GRAL.&&RIVADAVIA AV.",-34.6221624314,-58.4451694109,0
8316,"IRIGOYEN, BERNARDO DE&&SAN JUAN AV.",-34.6221361177,-58.3800083833,0
8324,"LIMA&&SAN JUAN AV.",-34.6221616583,-58.3814306448,0
8336,"SALTA&&SAN JUAN AV.",-34.6222426087,-58.3829647048,0
8338,"CAMARONES&&SANABRIA",-34.6222720377,-58.4950689511,0
8346,"SAN JUAN AV.&&SANTIAGO DEL ESTERO",-34.6223132612,-58.3843947637,0
8352,"CUENCA&&GAONA AV.",-34.6223834822,-58.4778068439,0
8353,"GORDILLO, JOSE O., CNEL.",-34.6218767475,-58.5201030525,0
8360,"CALVO, CARLOS&&URQUIZA, GRAL.",-34.6224063923,-58.4091080114,0
8363,"AVELLANEDA AV.&&BOYACA AV.",-34.6224514028,-58.4596221096,0
8364,"BOEDO AV.&&ESTADOS UNIDOS",-34.6224453885,-58.4163697181,0
8368,"SAENZ PEÑA, LUIS, PRES.&&SAN JUAN AV.",-34.6224663023,-58.3871829797,0
8373,"BERMUDEZ&&MIRANDA",-34.6225336041,-58.5054780506,0
8376,"CEVALLOS, VIRREY&&SAN JUAN AV.",-34.6225587618,-58.3886541721,0
8379,"FORMOSA&&SAN JOSE DE CALASANZ",-34.622587625,-58.4379321923,0
8385,"IRIGOYEN&&NAZARRE",-34.6226305421,-58.5239420427,0
8386,"AVELLANEDA AV.&&FRAY LUIS BELTRAN",-34.6226461389,-58.4601769293,0
8387,"SAN JUAN AV.&&SOLIS",-34.6226345131,-58.3898907753,0
8399,"AUTOPISTA 25 DE MAYO&&HUERGO, ING. AV.",-34.6226607071,-58.3659405424,0
8401,"ENTRE RIOS AV.&&SAN JUAN AV.",-34.6227325798,-58.3914917101,0
8408,"COMBATE DE LOS POZOS&&SAN JUAN AV.",-34.6228217993,-58.3929301174,0
8410,"COCHABAMBA&&PASEO COLON AV.",-34.6228095972,-58.36819146,0
8412,"BAIGORRIA&&HUGO, VICTOR",-34.62284918,-58.519893897,0
8415,"PAYSANDU&&RIVADAVIA AV.",-34.6228863621,-58.4470134899,0
8418,"SAN JUAN AV.&&SARANDI",-34.6228731963,-58.393768665,0
8419,"GALLARDO&&PAZ, GRAL. AV.",-34.6228808716,-58.5300594077,0
8420,"ALBERDI, JUAN BAUTISTA AV.&&BARCO CENTENERA DEL",-34.6228989041,-58.4408465521,0
8432,"BALCARCE&&COCHABAMBA",-34.6229317274,-58.3697606553,0
8435,"RINCON&&SAN JUAN AV.",-34.6229734646,-58.395367733,0
8446,"ALBERDI, JUAN BAUTISTA AV.&&MORENO, JOSE MARIA AV.",-34.6230460607,-58.434659036,0
8451,"PASCO&&SAN JUAN AV.",-34.6230585945,-58.3963653029,0
8458,"ARANGUREN, JUAN F., DR.&&FRAY CAYETANO RODRIGUEZ",-34.6231042681,-58.465195695,0
8466,"NAZCA AV.&&VALLESE, FELIPE",-34.6231701645,-58.4730138579,0
8469,"CAMPANA&&GAONA AV.",-34.622909634,-58.4787986952,0
8473,"ALBERDI, JUAN BAUTISTA AV.&&RIGLOS",-34.6232114993,-58.4362635878,0
8476,"HUMBERTO 1°&&LA RIOJA",-34.6232147731,-58.4072187741,0
8481,"PICHINCHA&&SAN JUAN AV.",-34.6232329823,-58.3978287848,0
8488,"FRAGATA PRES. SARMIENTO&&RIVADAVIA AV.",-34.6233218624,-58.4481229,0
8492,"CONCORDIA&&GAONA AV.",-34.6233549365,-58.4797551898,0
8499,"MATHEU&&SAN JUAN AV.",-34.6234172045,-58.3992782944,0
8502,"ENTRE RIOS AV.&&JENNER, EDUARDO, DR.",-34.6234242595,-58.3914606168,0
8515,"CAMARONES&&MOCTEZUMA",-34.623511011,-58.4968536154,0
8522,"ALBERTI&&SAN JUAN AV.",-34.6235617458,-58.4004240571,0
8540,"BEAUCHEF&&MATORRAS",-34.6236772101,-58.4332586548,0
8541,"SAAVEDRA&&SAN JUAN AV.",-34.6236678223,-58.4012865142,0
8546,"24 DE NOVIEMBRE&&HUMBERTO 1°",-34.6237377118,-58.4104754504,0
8551,"GAONA AV.&&LAMARCA, EMILIO",-34.6237785371,-58.4807395468,0
8554,"JUJUY AV.&&SAN JUAN AV.",-34.623779257,-58.4021731632,0
8559,"OROÑO, NICASIO&&RIVADAVIA AV.",-34.6238265285,-58.4494085661,0
8560,"AUTOPISTA 25 DE MAYO&&SARANDI",-34.6238108795,-58.393638992,0
8561,"AUTOPISTA 25 DE MAYO",-34.6235831142,-58.3814855667,0
8562,"BARCO CENTENERA DEL&&HUALFIN",-34.6238426289,-58.4407453489,0
8564,"HORTIGUERA&&RIVADAVIA AV.",-34.6229849881,-58.4472646905,0
8573,"ALVAREZ, DONATO, TTE. GRAL.&&BACACAY",-34.6234521769,-58.455049139,0
8586,"COCHABAMBA&&SAN JOSE",-34.6239314361,-58.3858031969,0
8593,"MOREAU DE JUSTO, ALICIA AV.&&RAWSON DE DELLEPIANE,",-34.6239327134,-58.3650872511,0
8594,"GARAY, JUAN DE AV.&&HUERGO, ING. AV.",-34.6239626797,-58.3654830897,0
8599,"COCHABAMBA&&ENTRE RIOS AV.",-34.6239872083,-58.3914345749,0
8602,"CATAMARCA&&SAN JUAN AV.",-34.6240065789,-58.4040187908,0
8603,"GARAY, JUAN DE AV.&&HUERGO, ING. AV.",-34.6239859539,-58.3657901692,0
8604,"COCHABAMBA&&SANTIAGO DEL ESTERO",-34.6240032783,-58.3843912899,0
8606,"BERMUDEZ&&GARCIA, JUAN AGUSTIN",-34.6240316869,-58.5034905772,0
8612,"AZOPARDO&&GARAY, JUAN DE AV.",-34.6240266153,-58.3666204607,0
8622,"GARAY, JUAN DE AV.&&PASEO COLON AV.",-34.6240708495,-58.368063515,0
8630,"BALCARCE&&GARAY, JUAN DE AV.",-34.6241590618,-58.3697563817,0
8632,"GAONA AV.&&SAN NICOLAS",-34.6242057904,-58.481732604,0
8633,"HUMBERTO 1°&&LINIERS VIRREY",-34.6242065884,-58.4136563812,0
8644,"BEAUCHEF&&VALLE",-34.6243100707,-58.4331207605,0
8645,"COCHABAMBA&&PASCO",-34.6242953609,-58.3959663898,0
8646,"BIEDMA, JOSE JUAN&&RIVADAVIA AV.",-34.6243194173,-58.4506653703,0
8650,"BOLIVAR&&GARAY, JUAN DE AV.",-34.6243226742,-58.3726735124,0
8652,"HUMBERTO 1°&&MAZA",-34.6243707642,-58.4147534399,0
8653,"LA RIOJA&&SAN JUAN AV.",-34.6243889486,-58.4070812549,0
8661,"PUAN&&RIVADAVIA AV.",-34.6235282671,-58.4486486472,0
8664,"GARAY, JUAN DE AV.&&PERU",-34.6244350863,-58.374032846,0
8666,"ALVAREZ, DONATO, TTE. GRAL.&&YERBAL",-34.6244789164,-58.4545754678,0
8669,"COCHABAMBA&&PICHINCHA",-34.624472823,-58.3975063905,0
8671,"COCHABAMBA&&RINCON",-34.6244870044,-58.3947408666,0
8678,"DIAZ, CESAR, GRAL.&&SEGUROLA AV.",-34.6245396111,-58.4942003686,0
8684,"CHACABUCO&&GARAY, JUAN DE AV.",-34.6245625436,-58.3754759089,0
8686,"BERNALDES&&CAMARONES",-34.6246008096,-58.4993320553,0
8687,"SAN JUAN AV.&&URQUIZA, GRAL.",-34.6245995546,-58.4088779362,0
8688,"ARGERICH&&MORON",-34.6246174746,-58.4742087288,0
8693,"CONSTITUCION&&LIMA",-34.6246307677,-58.381426005,0
8704,"CONSTITUCION&&SALTA",-34.6246808531,-58.3829303237,0
8715,"ARANGUREN, JUAN F., DR.&&TERRADA",-34.6247610447,-58.4707784026,0
8716,"BERTRES&&VALLE",-34.6247648487,-58.4383481088,0
8723,"ORURO&&SAN JUAN AV.",-34.6247808167,-58.4104626924,0
8730,"CONSTITUCION&&SAENZ PEÑA, LUIS, PRES.",-34.6248500663,-58.3871904295,0
8740,"CEVALLOS, VIRREY&&CONSTITUCION",-34.624937924,-58.3883923821,0
8743,"BARCO CENTENERA DEL&&VALLE",-34.6249910699,-58.4406221939,0
8745,"MIRO&&RIVADAVIA AV.",-34.6240167962,-58.4498933462,0
8749,"LAMARCA, EMILIO&&VALLESE, FELIPE",-34.6250751056,-58.4802084862,0
8750,"CONSTITUCION&&SOLIS",-34.6250651034,-58.3896562358,0
8751,"PAZ, GRAL. AV.&&TINOGASTA",-34.6250709592,-58.5299447918,0
8760,"GARAY, JUAN DE AV.&&PIEDRAS",-34.6251128297,-58.3767543764,0
8763,"LINIERS VIRREY&&SAN JUAN AV.",-34.6251396642,-58.4135744687,0
8764,"AUTOPISTA BUENOS AIRES - LA PLATA&&BRASIL AV.",-34.625119926,-58.3634593991,0
8778,"MORELOS&&RIVADAVIA AV.",-34.6252304221,-58.4530029436,0
8779,"AZOPARDO&&BRASIL AV.",-34.6251939207,-58.3664921732,0
8780,"BRASIL AV.&&PASEO COLON AV.",-34.6251940325,-58.3679754228,0
8792,"COMBATE DE LOS POZOS&&CONSTITUCION",-34.6252985028,-58.3925395579,0
8798,"CONSTITUCION&&SARANDI",-34.6253581143,-58.3934526651,0
8799,"BARCALA&&LA RIOJA",-34.625367992,-58.4069682282,0
8805,"CATAMARCA&&COCHABAMBA",-34.6254461644,-58.4031390253,0
8827,"ARANGUREN, JUAN F., DR.&&ARGERICH",-34.625605484,-58.4737481461,0
8834,"ALVAREZ, DONATO, TTE. GRAL.&&RIVADAVIA AV.",-34.6256300162,-58.4540318296,0
8839,"GARAY, JUAN DE AV.&&TACUARI",-34.6256541426,-58.3780100389,0
8844,"ARTIGAS, JOSE GERVASIO, GRAL.&&BOGOTA",-34.6257054871,-58.465664134,0
8877,"CONSTITUCION&&MATHEU",-34.6259713388,-58.398916911,0
8887,"PAVON&&SALTA",-34.6259893556,-58.3828800771,0
8892,"BIDEGAIN, PEDRO&&LA PLATA AV.",-34.6260464427,-58.4269733246,0
8895,"GUALEGUAYCHU&&JUSTO, JUAN B. AV.",-34.6260541835,-58.4884760747,0
8897,"PAVON&&SANTIAGO DEL ESTERO",-34.6260518763,-58.3843662637,0
8902,"GARAY, JUAN DE AV.&&IRIGOYEN, BERNARDO DE",-34.6260832245,-58.3790128126,0
8903,"PAVON&&SAN JOSE",-34.6261103028,-58.385754742,0
8906,"BOGOTA&&ESTADO PLURINACIONAL DE BOLIVIA",-34.6261480625,-58.4670675045,0
8908,"PUMACAHUA&&RIVADAVIA AV.",-34.626154131,-58.4553774548,0
8910,"COCHABAMBA&&URQUIZA, GRAL.",-34.6261478763,-58.408708076,0
8912,"ALBERTI&&CONSTITUCION",-34.6261703131,-58.4001839795,0
8913,"PAVON&&SAENZ PEÑA, LUIS, PRES.",-34.6261724171,-58.387210094,0
8914,"GAONA AV.&&MERCEDES",-34.6261942854,-58.4865516423,0
8919,"CEVALLOS, VIRREY&&PAVON",-34.626202395,-58.3883109955,0
8920,"PAVON&&SOLIS",-34.6262074385,-58.3895371513,0
8921,"BOCAYUVA, QUINTINO&&SAN JUAN AV.",-34.6262288529,-58.4215173275,0
8923,"GOYENA, PEDRO AV.&&THOMPSON",-34.6262610061,-58.4391154068,0
8929,"24 DE NOVIEMBRE&&COCHABAMBA",-34.6263060766,-58.4102110068,0
8934,"ENTRE RIOS AV.&&PAVON",-34.6263314891,-58.3912454731,0
8942,"CONSTITUCION&&JUJUY AV.",-34.6263889155,-58.4015766971,0
8951,"ACHAVAL&&ALBERDI, JUAN BAUTISTA AV.",-34.6264676866,-58.4500528569,0
8956,"COCHABAMBA&&SANCHEZ DE LORIA",-34.6265033201,-58.4119926667,0
8964,"CATAMARCA&&CONSTITUCION",-34.6265936552,-58.4028810029,0
8980,"DON PEDRO DE MENDOZA AV.&&GUALEGUAY",-34.6254171406,-58.3609443868,0
8985,"BOLIVAR&&CASEROS AV.",-34.6267369054,-58.372551278,0
8992,"COCHABAMBA&&MAZA",-34.6267938275,-58.4145968088,0
9007,"BRASIL&&TACUARI",-34.6268259568,-58.3772661354,0
9019,"BOEDO AV.&&COCHABAMBA",-34.6269486716,-58.4159856921,0
9020,"GARAY, JUAN DE AV.&&LIMA",-34.6269386564,-58.3822338305,0
9023,"GARAY, JUAN DE AV.&&SALTA",-34.6269582157,-58.3828442987,0
9036,"GARAY, JUAN DE AV.&&SAN JOSE",-34.6270622003,-58.3857324731,0
9041,"LAUTARO&&RIVADAVIA AV.",-34.6271299812,-58.4578384854,0
9053,"CEVALLOS, VIRREY&&GARAY, JUAN DE AV.",-34.6271633134,-58.3882988004,0
9057,"DIRECTORIO AV.&&SENILLOSA",-34.6271989868,-58.4281617684,0
9058,"CONSTITUCION&&LA RIOJA",-34.6272020698,-58.4067576708,0
9059,"GARAY, JUAN DE AV.&&SOLIS",-34.6272064756,-58.389441022,0
9062,"CASTRO BARROS&&COCHABAMBA",-34.6272426516,-58.4184981079,0
9070,"COMBATE DE LOS POZOS&&GARAY, JUAN DE AV.",-34.6272622487,-58.3921626178,0
9082,"CONSTITUCION&&URQUIZA, GRAL.",-34.6273441033,-58.408588108,0
9095,"24 DE NOVIEMBRE&&CONSTITUCION",-34.6274525878,-58.4100947553,0
9108,"CAMACUA&&RIVADAVIA AV.",-34.6275477031,-58.4588543825,0
9110,"BOCAYUVA, QUINTINO&&COCHABAMBA",-34.6275565018,-58.4211912253,0
9117,"DIRECTORIO AV.&&VIEL",-34.6275996882,-58.4309353092,0
9118,"ARANGUREN, JUAN F., DR.&&GONZALEZ, JOAQUIN V.",-34.6276140424,-58.481434501,0
9123,"FALCON, RAMON L.,CNEL.&&PUMACAHUA",-34.627633173,-58.4545163546,0
9124,"CATAMARCA&&PAVON",-34.6276205236,-58.4026500674,0
9138,"BROWN, ALTE. AV.&&PASEO COLON AV.",-34.6271409344,-58.3679493424,0
9141,"GAONA AV.&&SEGUROLA AV.",-34.6277019278,-58.4902207284,0
9154,"BRASIL&&CIUDADELA",-34.6277792215,-58.3796160533,0
9162,"GARAY, JUAN DE AV.&&PASCO",-34.6278279445,-58.3953485272,0
9163,"COLOMBRES&&CONSTITUCION",-34.6278458591,-58.4172599275,0
9168,"BRASIL&&SALTA",-34.6278603878,-58.3828130139,0
9169,"CASEROS AV.&&TACUARI",-34.6278627553,-58.3766079707,0
9173,"ALBERDI, JUAN BAUTISTA AV.&&CURAPALIGUE",-34.62792361,-58.4528711578,0
9176,"ACHAVAL&&GOYENA, PEDRO AV.",-34.6279457894,-58.4493131447,0
9179,"GAVILAN&&RIVADAVIA AV.",-34.627954571,-58.4598577669,0
9189,"ARTIGAS, JOSE GERVASIO, GRAL.&&YERBAL",-34.6280277115,-58.4646443506,0
9194,"COLOMBRES&&CONSTITUCION",-34.6280714009,-58.4171962487,0
9196,"GARAY, JUAN DE AV.&&PICHINCHA AV.",-34.6280857245,-58.3968099795,0
9205,"NOGOYA&&PAZ, GRAL. AV.",-34.6270349993,-58.5298075839,0
9230,"ARANGUREN, JUAN F., DR.&&CHIVILCOY",-34.6283059947,-58.4842416105,0
9232,"LA PLATA AV.&&ZUVIRIA",-34.6283151158,-58.4264575109,0
9242,"MEMBRILLAR&&RIVADAVIA AV.",-34.628414677,-58.4612072163,0
9243,"GARAY, JUAN DE AV.&&MATHEU",-34.6284046466,-58.3985970034,0
9245,"BACACAY&&NAZCA AV.",-34.6284230646,-58.4706593748,0
9246,"BRASIL&&SAN JOSE",-34.6284236642,-58.3856860534,0
9247,"MORON&&SEGUROLA AV.",-34.6284466458,-58.4892850304,0
9257,"DIRECTORIO AV.&&SAN JOSE DE CALASANZ",-34.6285092213,-58.4371708021,0
9276,"SANCHEZ DE LORIA&&TARIJA",-34.6286226604,-58.4118765207,0
9277,"BELEN&&GAONA AV.",-34.628635159,-58.4924456139,0
9278,"CASEROS AV.&&MONTES DE OCA, MANUEL AV.",-34.6286091925,-58.3779356225,0
9287,"DOBLAS&&ZUVIRIA",-34.6287325727,-58.4293258947,0
9289,"24 DE NOVIEMBRE&&PAVON",-34.6287363524,-58.4099756013,0
9296,"ECHENAGUCIA&&LASCANO",-34.6288150631,-58.518883371,0
9297,"FRAY CAYETANO RODRIGUEZ&&RIVADAVIA AV.",-34.6288487124,-58.4627120751,0
9301,"BARCO CENTENERA DEL&&DIRECTORIO AV.",-34.628854144,-58.4395287832,0
9313,"FRAGUEIRO&&PAZ, GRAL. AV.",-34.6289105741,-58.5296943239,0
9315,"BOEDO AV.&&TARIJA",-34.6289499308,-58.4159083071,0
9316,"GARAY, JUAN DE AV.&&LUCA, ESTEBAN DE",-34.6289675998,-58.4035455864,0
9323,"LIMA&&O'BRIEN",-34.6289986804,-58.3813938559,0
9331,"O'BRIEN&&SALTA",-34.629048037,-58.3827534237,0
9355,"GARAY, JUAN DE AV.&&ORURO",-34.6292048819,-58.4056483575,0
9360,"ARTIGAS, JOSE GERVASIO, GRAL.&&RIVADAVIA AV.",-34.6292506872,-58.4641121598,0
9362,"ARANGUREN, JUAN F., DR.&&SEGUROLA AV.",-34.6292838462,-58.4882330529,0
9367,"GARAY, JUAN DE AV.&&LA RIOJA",-34.6293027546,-58.4065158265,0
9369,"BLANES, JUAN MANUEL&&BRIN, MINISTRO",-34.6292810186,-58.3606504914,0
9373,"GOYENA, PEDRO AV.&&THORNE",-34.628348068,-58.4515087731,0
9379,"CASEROS AV.&&HORNOS, GRAL.",-34.6293320157,-58.3790480351,0
9404,"GARAY, JUAN DE AV.&&URQUIZA, GRAL.",-34.6295146609,-58.4083669657,0
9421,"ESTADO PLURINACIONAL DE BOLIVIA&&RIVADAVIA AV.",-34.629650674,-58.4655199256,0
9437,"LOPE DE VEGA AV.&&MAGARIÑOS CERVANTES, A.",-34.6297864761,-58.5043144626,0
9441,"ARGERICH&&YERBAL",-34.6298337815,-58.4717830532,0
9463,"CONDARCO&&RIVADAVIA AV.",-34.6300086024,-58.4669095564,0
9486,"LA PORTEÑA&&RIVADAVIA AV.",-34.6301448544,-58.4674445048,0
9489,"CATAMARCA&&INCLAN",-34.6301440019,-58.4022283026,0
9495,"GALLARDO&&LASCANO",-34.6301855143,-58.5254216773,0
9501,"ECHAGUE, PEDRO&&SALTA",-34.6302145614,-58.3826974304,0
9502,"COLOMBRES&&PAVON AV.",-34.6302377568,-58.4164436254,0
9503,"BRIN, MINISTRO&&PEREZ GALDOS, BENITO AV.",-34.6302116638,-58.3592400412,0
9509,"AVELLANEDA AV.&&SEGUROLA AV.",-34.6303088319,-58.4869452013,0
9517,"RIVADAVIA AV.&&TERRADA",-34.6303626414,-58.4683035439,0
9526,"FINOCHIETTO ENRIQUE DR.&&HORNOS, GRAL.",-34.6304975093,-58.3786249672,0
9534,"CUENCA&&YERBAL",-34.6304372664,-58.4741033366,0
9543,"FALCON, RAMON L.,CNEL.&&PEDERNERA",-34.6304976747,-58.4635942665,0
9551,"GARCIA, MARTIN AV.&&RUY DIAZ DE GUZMAN",-34.6305214947,-58.3716667435,0
9556,"FINOCHIETTO ENRIQUE DR.&&HORNOS, GRAL.",-34.6305769634,-58.3785475286,0
9564,"BRASIL&&MATHEU",-34.6306479518,-58.3977530144,0
9578,"ALBERDI, JUAN BAUTISTA AV.&&MEMBRILLAR",-34.6307639031,-58.4600852097,0
9579,"15 DE NOVIEMBRE DE 1889&&LIMA",-34.6307392959,-58.38133992,0
9590,"PI Y MARGALL&&REGIMIENTO DE PATRICIOS AV.",-34.6308083199,-58.3705372387,0
9593,"FINOCHIETTO ENRIQUE DR.&&MONTES DE OCA, MANUEL AV.",-34.6308385713,-58.3767221053,0
9595,"CERVANTES&&JUSTO, JUAN B. AV.",-34.630876351,-58.4974430713,0
9596,"15 DE NOVIEMBRE DE 1889&&SALTA",-34.6308595472,-58.382666136,0
9607,"CAFFARENA, AGUSTIN R.&&VILLAFAÑE, WENCESLAO",-34.6309141381,-58.358175404,0
9616,"15 DE NOVIEMBRE DE 1889&&SANTIAGO DEL ESTERO",-34.6309919726,-58.3841088076,0
9619,"JUJUY AV.&&SALCEDO",-34.6310219583,-58.400679982,0
9635,"ARGERICH&&RIVADAVIA AV.",-34.6311291164,-58.471193029,0
9639,"DIRECTORIO AV.&&PUMACAHUA",-34.6311387452,-58.4532335222,0
9640,"ALBERTI&&BRASIL",-34.6311228623,-58.3991651982,0
9641,"15 DE NOVIEMBRE DE 1889&&SAN JOSE",-34.6311183077,-58.3855250785,0
9643,"FERNANDEZ MORENO, BALDOMERO&&PERON, EVA AV.",-34.6311927265,-58.4424224136,0
9648,"24 DE NOVIEMBRE&&INCLAN",-34.6312405021,-58.4097431162,0
9662,"15 DE NOVIEMBRE DE 1889&&CEVALLOS, VIRREY",-34.6313195329,-58.387808076,0
9677,"MARTI, JOSE&&RIVADAVIA AV.",-34.6314612909,-58.4723779779,0
9696,"ASAMBLEA AV.&&DOBLAS",-34.6315801155,-58.428497216,0
9707,"DEAN FUNES&&SALCEDO",-34.6316444207,-58.4047747638,0
9712,"ALBERDI, JUAN BAUTISTA AV.&&PEDERNERA",-34.6316735322,-58.4631050692,0
9715,"INCLAN&&SANCHEZ DE LORIA",-34.6316965348,-58.411636839,0
9716,"CASEROS AV.&&SALTA",-34.6316826981,-58.3826261489,0
9729,"CUENCA&&RIVADAVIA AV.",-34.6317907845,-58.4734835323,0
9732,"15 DE NOVIEMBRE DE 1889&&LIMA",-34.6308917568,-58.3813319321,0
9738,"AYUI&&PAZ, GRAL. AV.",-34.6318252044,-58.5295228437,0
9762,"CAMPANA&&RIVADAVIA AV.",-34.6320617449,-58.4746041674,0
9763,"GONZALEZ, JOAQUIN V.&&YERBAL",-34.6320636702,-58.4794057253,0
9764,"BROWN, ALTE. AV.&&VILLAFAÑE, WENCESLAO",-34.6320221032,-58.3608192991,0
9765,"BROWN, ALTE. AV.&&PEREZ GALDOS, BENITO AV.",-34.6319770667,-58.3609439981,0
9775,"FALCON, RAMON L.,CNEL.&&SAN PEDRITO AV.",-34.63215432,-58.4689911957,0
9784,"ITUZAINGO&&MONTES DE OCA, MANUEL AV.",-34.632191426,-58.3761629967,0
9790,"CALDERON DE LA BARCA, PEDRO&&MORON",-34.6322692986,-58.4982749155,0
9805,"EL CHASQUE&&GALLARDO",-34.632343055,-58.5247592546,0
9811,"GARCIA, MARTIN AV.&&JOVELLANOS, GASPAR M. DE",-34.6323724829,-58.3734435515,0
9850,"FALCON, RAMON L.,CNEL.&&QUIRNO",-34.6326057926,-58.4705274316,0
9854,"BRASIL&&LUCA, ESTEBAN DE",-34.6326031273,-58.4031101739,0
9858,"FINOCHIETTO ENRIQUE DR.&&GUANAHANI",-34.6322099007,-58.3795137123,0
9882,"PERON, EVA AV.&&SENDERO PARQUE CHACABUCO (NO OFICI",-34.6328826942,-58.4447284781,0
9887,"COMBATE DE LOS POZOS&&RONDEAU",-34.6328689065,-58.3911696176,0
9927,"FALCON, RAMON L.,CNEL.&&PORTELA",-34.6331501435,-58.4728740175,0
9930,"NECOCHEA&&PINZON",-34.6331151445,-58.3585018344,0
9932,"CASEROS AV.&&SAENZ PEÑA, LUIS, PRES.",-34.6331398053,-58.3865232521,0
9936,"BRASIL&&DEAN FUNES",-34.6331619999,-58.4045418727,0
9940,"AGUARIBAY&&PAZ, GRAL. AV.",-34.6331887139,-58.5294394102,0
9954,"MONTES DE OCA, MANUEL AV.&&USPALLATA",-34.6332528618,-58.3757933175,0
9955,"ALBERDI, JUAN BAUTISTA AV.&&SAN PEDRITO AV.",-34.6332857625,-58.4684846815,0
9968,"HORNOS, GRAL.&&USPALLATA",-34.6333545392,-58.3774585904,0
9983,"RODRIGUEZ, MARTIN&&VALLE, ARISTOBULO DEL",-34.6334712375,-58.3618731306,0
10007,"LA PLATA AV.&&SANTANDER",-34.6336997805,-58.4251848116,0
10024,"FRAGUEIRO&&MADRID",-34.6338501829,-58.5248981334,0
10031,"MADERO&&MADRID",-34.6339057057,-58.5256719546,0
10034,"RIVADAVIA AV.&&SEGUROLA AV.",-34.6339413588,-58.4823796313,0
10044,"BRANDSEN&&NECOCHEA",-34.633941566,-58.358017289,0
10048,"GANA&&MADRID",-34.6340047407,-58.5269959424,0
10051,"BRASIL&&ESQUEL",-34.6328843927,-58.4038177128,0
10052,"BOEDO AV.&&SALCEDO",-34.6340593566,-58.4161086874,0
10054,"MERCEDES&&RIVADAVIA AV.",-34.6340762715,-58.4829381449,0
10058,"ACHAVAL&&PERON, EVA AV.",-34.634101399,-58.4463915569,0
10060,"ALBERDI, JUAN BAUTISTA AV.&&MARTI, JOSE",-34.6341188649,-58.4711958681,0
10063,"OLMOS, AMBROSIO&&SALTA",-34.6341033474,-58.3825075082,0
10065,"MADRID&&PAZ, GRAL. AV.",-34.6341202335,-58.5293811063,0
10086,"MATHEU&&RONDEAU",-34.6342355494,-58.3963755813,0
10109,"BONIFACIO, JOSE&&SAN PEDRITO AV.",-34.6344573446,-58.4679631606,0
10114,"CAMARONES&&JUSTO, JUAN B. AV.",-34.6344752556,-58.5114447646,0
10129,"DON PEDRO DE MENDOZA AV.&&OLAVARRIA",-34.634188109,-58.3534559039,0
10143,"GOYA&&RIVADAVIA AV.",-34.6346797935,-58.4854353322,0
10160,"JUJUY AV.&&RONDEAU",-34.6347582499,-58.3992982094,0
10167,"NECOCHEA&&SUAREZ",-34.6347832089,-58.3575466874,0
10169,"HERRERA&&SAMPERIO, MANUEL J.",-34.6348175386,-58.3787077374,0
10171,"ALBERDI, JUAN BAUTISTA AV.&&PERGAMINO",-34.634862939,-58.473352188,0
10177,"DOLORES&&RAFAELA",-34.6349161714,-58.475726473,0
10185,"BELEN&&RIVADAVIA AV.",-34.6349804798,-58.4866794236,0
10195,"ACOSTA, MARIANO AV.&&FALCON, RAMON L.,CNEL.",-34.6350431261,-58.4810060256,0
10196,"CATAMARCA&&RONDEAU",-34.6350333868,-58.4009166365,0
10212,"CUZCO&&RESERVISTAS ARGENTINOS AV.",-34.6351493392,-58.5281794866,0
10213,"RESERVISTAS ARGENTINOS AV.",-34.6351210515,-58.5286650225,0
10219,"BARRAGAN&&JUSTO, JUAN B. AV.",-34.6342185321,-58.5232721151,0
10246,"BROWN, ALTE. AV.&&SUAREZ",-34.6353199339,-58.3588891957,0
10249,"CASEROS AV.&&MONASTERIO",-34.6353718094,-58.395958122,0
10256,"CASCO&&RESERVISTAS ARGENTINOS AV.",-34.6354274363,-58.5261704111,0
10261,"BENEDETTI, OSVALDO E., DIP.NAC.&&RIVADAVIA AV.",-34.634157978,-58.4832759805,0
10275,"REGIMIENTO DE PATRICIOS AV.&&VALLE, ARISTOBULO DEL",-34.6355629915,-58.3699546239,0
10277,"OLMOS, JUAN FRANCISCO&&RIVADAVIA AV.",-34.6356438727,-58.4894248745,0
10280,"ALBERDI, JUAN BAUTISTA AV.&&DOLORES",-34.6356625496,-58.4753990712,0
10282,"ALBERTI&&CASEROS AV.",-34.6356481115,-58.3974351152,0
10291,"CASEROS AV.&&GOMEZ, JUAN CARLOS",-34.6344852991,-58.3919540171,0
10299,"BOLAÑOS&&RIVADAVIA AV.",-34.6345397551,-58.4848556796,0
10309,"JUSTO, JUAN B. AV.&&RUIZ DE LOS LLANOS",-34.634684425,-58.5092211624,0
10317,"LA RIOJA&&RONDEAU",-34.6359188706,-58.4057508106,0
10323,"FRAGUEIRO&&RESERVISTAS ARGENTINOS AV.",-34.6359467029,-58.5228710379,0
10333,"MORETO&&RIVADAVIA AV.",-34.636035557,-58.4910623146,0
10345,"JACQUES, AMADEO&&MADERO",-34.6361137313,-58.5254424555,0
10353,"GANA&&JACQUES, AMADEO",-34.6361998924,-58.5267450827,0
10354,"CASEROS AV.&&CATAMARCA",-34.6362021918,-58.4004876231,0
10357,"HORNOS, GRAL.&&VALLE, ARISTOBULO DEL",-34.6362297945,-58.3767849207,0
10358,"MONTES DE OCA, MANUEL AV.&&VALLE, ARISTOBULO DEL",-34.6361076477,-58.3750677252,0
10366,"OLIVERA AV.&&RIVADAVIA AV.",-34.6352145179,-58.4876480504,0
10369,"CARDOSO&&RIVADAVIA AV.",-34.6362908746,-58.4921319374,0
10371,"MONTES DE OCA, MANUEL AV.&&VALLE, ARISTOBULO DEL",-34.6362652328,-58.3750373969,0
10375,"DIRECTORIO AV.&&MARTI, JOSE",-34.6363281012,-58.4702102926,0
10377,"AUTOPISTA PERITO MORENO&&CALDERON DE LA BARCA, PED",-34.6361322214,-58.4967372968,0
10380,"BATHURST&&SANCHEZ DE LORIA AV.",-34.6363327327,-58.4107083322,0
10381,"THORNE&&ZUVIRIA",-34.6363469165,-58.4480121511,0
10384,"RONDEAU&&URQUIZA, GRAL.",-34.6363517371,-58.407670279,0
10387,"JACQUES, AMADEO&&PAZ, GRAL. AV.",-34.6363796338,-58.5292276604,0
10389,"AZUL&&BONIFACIO, JOSE",-34.6364034014,-58.4738890606,0
10395,"ALBERDI, JUAN BAUTISTA AV.&&ENSENADA",-34.6364882637,-58.4773513386,0
10399,"CASEROS AV.&&LAVARDEN",-34.6364982351,-58.4021190175,0
10404,"BILBAO, FRANCISCO AV.&&VARELA AV.",-34.6365365291,-58.4617979736,0
10411,"BERMUDEZ&&RIVADAVIA AV.",-34.6366198731,-58.493660151,0
10413,"CORRO, MIGUEL C. DEL, CANONIGO AV.&&RIVADAVIA AV.",-34.636645684,-58.4937980174,0
10414,"DIRECTORIO AV.&&PORTELA",-34.6366540234,-58.4713026962,0
10429,"FALCON, RAMON L.,CNEL.&&OLIVERA AV.",-34.6365246739,-58.4872794234,0
10439,"CASEROS AV.&&DEAN FUNES",-34.6367929347,-58.403783483,0
10440,"CERVANTES&&RIVADAVIA AV.",-34.6368337321,-58.4951057715,0
10444,"CARABOBO AV.&&RECUERO, CASIMIRO, TTE. CNEL.",-34.6364848806,-58.4519242593,0
10459,"BARRAGAN&&BYNON",-34.6369707095,-58.5227617736,0
10460,"DIRECTORIO AV.&&PERGAMINO",-34.6369863428,-58.4724166654,0
10463,"ACOSTA, MARIANO AV.&&ALBERDI, JUAN BAUTISTA AV.",-34.6369931251,-58.4785450254,0
10469,"LA PLATA AV.&&SARAZA",-34.6367761078,-58.4243876153,0
10470,"DONIZETTI&&RIVADAVIA AV.",-34.6370339107,-58.4965553132,0
10475,"MIRO&&SANTANDER",-34.6370588047,-58.4439091768,0
10490,"CASEROS AV.&&LA RIOJA",-34.6371220542,-58.4056087989,0
10507,"LEOPARDI&&RIVADAVIA AV.",-34.6372334379,-58.4980060545,0
10519,"OLAVARRIA&&PALOS",-34.6373059316,-58.3612954741,0
10528,"LOPE DE VEGA&&RIVADAVIA AV.",-34.637432807,-58.4994570582,0
10544,"LOS PATOS&&LUZURIAGA",-34.6375433429,-58.3888687531,0
10553,"DANTE&&RIVADAVIA AV.",-34.6376401131,-58.5009194897,0
10559,"BALBASTRO&&CACHIMAYO",-34.6376598305,-58.436311641,0
10564,"ALBERDI, JUAN BAUTISTA AV.&&MARTINEZ CASTRO",-34.6376813851,-58.4800481356,0
10566,"CASEROS AV.&&PEPIRI",-34.6377198388,-58.4090560479,0
10567,"ACOSTA, MARIANO AV.&&BONIFACIO, JOSE",-34.6377316983,-58.4775907138,0
15159,"MANCO CAPAC&&ZUVIRIA",-34.6461035562,-58.460271402,0
10574,"FALCON, RAMON L.,CNEL.&&MEDINA",-34.6377816306,-58.4922697158,0
10578,"MOLIERE&&RIVADAVIA AV.",-34.6378008178,-58.5020472281,0
10580,"ARRIOLA&&CASEROS AV.",-34.636651552,-58.4029785943,0
10587,"BRANDSEN&&MONTES DE OCA, MANUEL AV.",-34.637846153,-58.3747328244,0
10608,"HUGO, VICTOR&&RIVADAVIA AV.",-34.6380057289,-58.5034172255,0
10610,"BRANDSEN&&HORNOS, GRAL.",-34.638009165,-58.3762735562,0
10615,"IRIGOYEN&&RIVADAVIA AV.",-34.6380847827,-58.5039376019,0
10617,"RAFAELA&&RIO GRANDE",-34.6381047109,-58.4878753662,0
10648,"REGIMIENTO DE PATRICIOS AV.&&SUAREZ",-34.6382704406,-58.3695352851,0
10650,"ROBERTSON",-34.6383096623,-58.4562711098,0
10656,"FALCON, RAMON L.,CNEL.&&HOMERO",-34.6381270522,-58.494841367,0
10661,"CASTRO BARROS&&CHICLANA AV.",-34.6383288678,-58.4173042353,0
10664,"MONTEAGUDO&&PATAGONES",-34.6383454165,-58.4053986059,0
10669,"ACOSTA, MARIANO AV.&&RODO, JOSE E.",-34.638374825,-58.4767778937,0
10672,"BROWN, ALTE. AV.&&DON PEDRO DE MENDOZA AV.",-34.6383322813,-58.3570102554,0
10677,"BASUALDO&&RIVADAVIA AV.",-34.6384034712,-58.5059314439,0
10682,"CASEROS AV.&&MAZA",-34.6384294325,-58.413194197,0
10683,"ALMAFUERTE AV.",-34.6384338803,-58.4113689554,0
10684,"AZUL&&TANDIL",-34.6384450444,-58.4729919518,0
10688,"GARIBALDI&&OLAVARRIA",-34.6384838503,-58.3641389072,0
10711,"ECHENAGUCIA&&RIVADAVIA AV.",-34.6386430404,-58.5073480005,0
10712,"CHICLANA AV.&&JANTIN, JUAN BAUTISTA",-34.638646054,-58.4176798105,0
10716,"MORETO&&RAFAELA",-34.6386923734,-58.4902965323,0
10719,"MONTES DE OCA, MANUEL AV.&&SUAREZ",-34.6386737986,-58.3745839449,0
10723,"ARAOZ DE LAMADRID, GREGORIO, GRAL.&&VALLE IBERLUCE",-34.6386836266,-58.3622341858,0
10724,"CACHIMAYO&&SARAZA",-34.6387558798,-58.435918835,0
10739,"GORDILLO, TIMOTEO&&RIVADAVIA AV.",-34.6388518806,-58.5225610966,0
10744,"DUPUY&&RIVADAVIA AV.",-34.6388811388,-58.5086986163,0
10747,"BOEDO AV.&&CASEROS AV.",-34.6388948635,-58.4158459047,0
10749,"DIAZ, AVELINO&&THORNE",-34.6389220739,-58.4453718741,0
10764,"CORTINA&&RIVADAVIA AV.",-34.6381723368,-58.5045133659,0
10771,"CAJARAVILLA&&OLIVERA AV.",-34.6391117526,-58.486487083,0
10773,"PERGAMINO&&REMEDIOS",-34.6391170628,-58.4714784544,0
10775,"ALBARIÑO&&RIVADAVIA AV.",-34.6391157005,-58.5100507715,0
10788,"ESTEVES SAGUI&&RIVADAVIA AV.",-34.6391923989,-58.515910173,0
10791,"ACOSTA, MARIANO AV.&&TANDIL",-34.6392217773,-58.4757073476,0
10793,"RIVADAVIA AV.&&TUYU",-34.6392444227,-58.5142965978,0
10794,"PAZ, GRAL. AV.",-34.6402268738,-58.5295253666,0
10795,"PAZ, GRAL. AV.",-34.6299109826,-58.5301534895,0
10804,"RIVADAVIA AV.&&URDANETA",-34.6392932016,-58.5129909489,0
10808,"BEDOYA, ELIAS&&RIVADAVIA AV.",-34.6393453152,-58.5114088957,0
10819,"MEDINA&&MORETO",-34.6395125038,-58.4900582239,0
10825,"PAZ, GRAL. AV.",-34.6395119891,-58.5290915956,0
10833,"HORNOS, GRAL.&&SUAREZ AV.",-34.6395319702,-58.3758447475,0
10842,"ALMAFUERTE AV.&&POMAR, GREGORIO TTE. CNEL.",-34.6396169024,-58.411827985,0
10845,"DE LA TORRE, LISANDRO&&RIVADAVIA AV.",-34.6389314014,-58.5212147524,0
10853,"LAGUNA&&RODO, JOSE E.",-34.6397201127,-58.479703038,0
10855,"BONIFACIO, JOSE&&LACARRA",-34.6397247225,-58.4819299641,0
10856,"ARAOZ DE LAMADRID, GREGORIO, GRAL.&&IRALA",-34.6396976999,-58.3661970428,0
10861,"DIRECTORIO AV.&&MARTINEZ CASTRO",-34.6397542733,-58.4774082101,0
10865,"ALBERDI, JUAN BAUTISTA AV.&&FERNANDEZ",-34.6397892146,-58.4846055116,0
10866,"CACHIMAYO&&ZAÑARTU",-34.6397887632,-58.4355486191,0
10870,"OLIDEN&&RIVADAVIA AV.",-34.6391361788,-58.5174098249,0
10880,"FONROUGE&&RIVADAVIA AV.",-34.6391801175,-58.5162995508,0
10897,"ALBERDI, JUAN BAUTISTA AV.&&VUCETICH, JUAN",-34.6401261331,-58.4853186841,0
10899,"CARHUE&&FALCON, RAMON L.,CNEL.",-34.6401205395,-58.5250039935,0
10901,"ARAOZ DE LAMADRID, GREGORIO, GRAL.&&REGIMIENTO DE ",-34.6401141098,-58.369249731,0
10907,"COSQUIN&&RIVADAVIA AV.",-34.6389309569,-58.5237274314,0
10917,"FALCON, RAMON L.,CNEL.&&MONTIEL",-34.6402515427,-58.5263494049,0
10922,"GARIBALDI&&MAGALLANES",-34.6399633238,-58.3633059668,0
10923,"CAJARAVILLA&&WHITE",-34.6403012464,-58.4925003069,0
10930,"LEGUIZAMON, MARTINIANO&&RIVADAVIA AV.",-34.6390084247,-58.5197546559,0
10931,"CAJARAVILLA&&WHITE",-34.6403538992,-58.4928908241,0
10935,"AUTOPISTA 1 SUR PRESIDENTE ARTURO FRONDIZI&&HERRER",-34.6403508239,-58.377093347,0
10937,"MURGUIONDO&&RIVADAVIA AV.",-34.6390596525,-58.5187680215,0
10949,"BUTTELER&&COBO AV.",-34.6404385634,-58.4249200611,0
10952,"BALBASTRO",-34.6397450483,-58.4444974906,0
10957,"ALBERDI, JUAN BAUTISTA AV.&&OLIVERA AV.",-34.6404781824,-58.4860647561,0
10963,"FALCON, RAMON L.,CNEL.&&PAZ, GRAL. AV.",-34.640488307,-58.5290142327,0
10964,"AZUL&&GARZON EUGENIO GENERAL",-34.6405133009,-58.4720831287,0
10979,"ARAOZ DE LAMADRID, GREGORIO, GRAL.&&MONTES DE OCA,",-34.6405716657,-58.3742439965,0
10983,"HORNOS, GRAL.&&OLAVARRIA",-34.6406187063,-58.3756996934,0
11005,"BERMEJO&&CARHUE",-34.6407866315,-58.5249450128,0
11014,"COBO AV.&&VIEL",-34.640862076,-58.4274243388,0
11016,"ALMAFUERTE AV.&&LOS PATOS",-34.6408878373,-58.4123507935,0
11017,"ALBERDI, JUAN BAUTISTA AV.&&EL SERENO",-34.6409036482,-58.4869668682,0
11018,"ACOSTA, MARIANO AV.&&GARZON EUGENIO GENERAL",-34.6409234715,-58.4735534954,0
11026,"LAGUNA&&TANDIL",-34.6409527883,-58.4781428082,0
11030,"COSQUIN&&LA MADRESELVA",-34.6409682668,-58.5235072869,0
11034,"BONIFACIO, JOSE&&FERNANDEZ",-34.6409952039,-58.4842410506,0
11058,"CACHIMAYO&&ZELARRAYAN",-34.6411988004,-58.4350431288,0
11062,"GARCIA DE COSSIO&&MIRALLA",-34.6412014547,-58.5099683541,0
11072,"PERGAMINO&&SAN PEDRO",-34.6412750998,-58.4705288653,0
11077,"ALBERDI, JUAN BAUTISTA AV.&&MEDINA",-34.6412987679,-58.4878046494,0
11079,"DIRECTORIO AV.&&LACARRA AV.",-34.6413019976,-58.4799282105,0
11092,"DE LA TORRE, LISANDRO&&IBARROLA",-34.6413861044,-58.520995006,0
11114,"LARRAZABAL&&TONELERO",-34.6415309117,-58.5146559526,0
11118,"ALCORTA, AMANCIO AV.&&MONASTERIO",-34.6415614321,-58.3938059842,0
11151,"CARBONARI, FRANCISCO, CMTE.&&PALACIOS, ALFREDO L.",-34.6417455399,-58.3610350981,0
11154,"GARZON EUGENIO GENERAL&&MARTINEZ CASTRO",-34.6418085085,-58.4748036823,0
11189,"CARHUE&&EL CARPINTERO",-34.6420294438,-58.5248355034,0
11192,"RODO, JOSE E.",-34.6420823187,-58.4830174858,0
11193,"ALCORTA, AMANCIO AV.&&LAFAYETTE",-34.6408248637,-58.3914743296,0
11236,"GARIBALDI&&PALACIOS, ALFREDO L.",-34.6422716136,-58.3619788959,0
11277,"ARAOZ DE LAMADRID, GREGORIO, GRAL.&&HORNOS, GRAL.",-34.6425250504,-58.3754903775,0
11279,"ALBERDI, JUAN BAUTISTA AV.&&CASTRO, EMILIO",-34.6424379133,-58.490208701,0
11296,"RODO, JOSE E.",-34.6426880428,-58.485396134,0
11300,"ARAOZ DE LAMADRID, GREGORIO, GRAL.&&HERRERA",-34.6426848567,-58.3764967744,0
11319,"BOSCH, VENTURA&&CARHUE",-34.6427999775,-58.524767565,0
11321,"COBO AV.&&MARTINEZ, VICTOR",-34.6428270952,-58.437786459,0
11326,"BOSCH, VENTURA&&MONTIEL",-34.642862638,-58.5261803677,0
11327,"PERON, EVA AV.&&SAN PEDRITO",-34.642921991,-58.4607159655,0
11335,"MELO, CARLOS F.&&PALACIOS, ALFREDO L.",-34.6429442145,-58.3632461511,0
11337,"BOSCH, VENTURA&&PAZ, GRAL. AV.",-34.6429786127,-58.5288777332,0
11341,"ACASSUSO&&MIRALLA",-34.643002562,-58.5076071244,0
11346,"LAFERRERE, GREGORIO DE&&PERGAMINO",-34.6430332964,-58.4689616897,0
11350,"DIRECTORIO AV.&&FERNANDEZ",-34.6430647416,-58.4819946176,0
11351,"RODO, JOSE E.",-34.6422919747,-58.482978425,0
11352,"OLIDEN&&TONELERO",-34.6430562218,-58.5164279552,0
11356,"MORETO&&TAPALQUE",-34.6431071777,-58.4884277164,0
11367,"CULPINA&&ZUVIRIA",-34.6431815384,-58.4563076793,0
11375,"AGACES&&SAENZ AV.",-34.6432726096,-58.4161103705,0
11376,"ALCORTA, AMANCIO AV.&&LUNA",-34.6433006705,-58.3977462978,0
11384,"COBO AV.&&PUAN",-34.6433796798,-58.4405005378,0
11385,"CORTEJARENA, JOSE A.&&MONTEAGUDO",-34.643376603,-58.404403191,0
11398,"ALBERDI, JUAN BAUTISTA AV.&&WHITE",-34.6434547647,-58.4923305681,0
11410,"COREA AV.&&SIN NOMBRE OFICIAL (ALT. LAUTARO 1800)",-34.6433141607,-58.4435858866,0
11412,"BILBAO, FRANCISCO AV.&&MARTINEZ CASTRO",-34.6435168073,-58.4726309142,0
11422,"DELLEPIANE, LUIS, TTE. GRAL.&&LAFUENTE AV.",-34.6435829382,-58.4627589214,0
11445,"MARTI, JOSE&&PRIMERA JUNTA",-34.6437100456,-58.4646619864,0
11458,"ECHEANDIA&&SAN PEDRITO",-34.6437866911,-58.4597079962,0
11478,"ALVAREZ, CRISOSTOMO&&VARELA AV.",-34.6433453607,-58.4544216499,0
11479,"ALVAREZ, CRISOSTOMO&&CULPINA",-34.6440464883,-58.4553694479,0
11486,"CORTEJARENA, JOSE A.&&PEPIRI",-34.6440735606,-58.4095441672,0
11489,"ALBERDI, JUAN BAUTISTA AV.&&HOMERO",-34.6440936707,-58.4936638972,0
11490,"GARCIA DE COSSIO&&PIERES",-34.6441054129,-58.5131948292,0
11506,"AUTOPISTA 25 DE MAYO&&AUTOPISTA PERITO MORENO",-34.6434330711,-58.4619089619,0
11507,"LAFUENTE AV.",-34.6441718823,-58.4621169467,0
11523,"DELLEPIANE, LUIS, TTE. GRAL.&&LAFUENTE AV.",-34.6442844006,-58.4609046632,0
11536,"MARTI, JOSE&&PERON, EVA AV.",-34.6443682969,-58.4638307733,0
11550,"TONELERO&&TUYUTI",-34.6443639414,-58.5179473169,0
11551,"BILBAO, FRANCISCO AV.&&LAGUNA",-34.6444320075,-58.4737299713,0
11554,"HORNOS, GRAL.&&QUINQUELA MARTIN, BENITO",-34.6444205877,-58.3751403815,0
11571,"DELLEPIANE, LUIS, TTE. GRAL.",-34.6440675897,-58.4626728564,0
11596,"ALCORTA, AMANCIO AV.&&LAVARDEN",-34.6446384089,-58.4002479564,0
11600,"CARHUE&&TUYUTI",-34.6446777521,-58.5246021089,0
11615,"ALBERDI, JUAN BAUTISTA AV.&&DONIZETTI",-34.6447395121,-58.4950807557,0
11619,"MONTIEL&&TUYUTI",-34.6447470824,-58.5260583204,0
11630,"FERNANDEZ DE LA CRUZ, F., GRAL. AV.&&RIESTRA AV.",-34.6448061829,-58.4255231283,0
11635,"PERON, EVA AV.&&PORTELA",-34.6448448412,-58.4648661693,0
11636,"SAN PEDRITO&&ZUVIRIA",-34.6448458155,-58.4585600797,0
11637,"ALBERDI, JUAN BAUTISTA AV.&&ESCALADA AV.",-34.644846709,-58.4953008953,0
11655,"TAPALQUE&&WHITE",-34.6449365508,-58.4904380457,0
11666,"FAMATINA&&ZAVALETA",-34.6448991057,-58.4019694622,0
11718,"PERGAMINO&&PERON, EVA AV.",-34.6453678537,-58.4660025538,0
11722,"BRAGADO&&BRUIX AV.",-34.6454016952,-58.4931512329,0
11731,"ALCORTA, AMANCIO AV.",-34.6451730068,-58.4012405988,0
11741,"FERNANDEZ MORENO, BALDOMERO&&MARTINEZ CASTRO",-34.6455984754,-58.4700126897,0
11744,"DE LA TORRE, LISANDRO&&HUMAITA",-34.6455953732,-58.5203775834,0
11745,"FERNANDEZ DE LA CRUZ, F., GRAL. AV.&&TILCARA",-34.6455519896,-58.4260656709,0
11753,"ALBERDI, JUAN BAUTISTA AV.&&GUARDIA NACIONAL",-34.6456427176,-58.4960354672,0
11755,"DIRECTORIO AV.&&MORETO",-34.645756277,-58.4851058609,0
11766,"ALVAREZ, CRISOSTOMO&&SAN PEDRITO",-34.64571205,-58.4576212563,0
11816,"FERNANDEZ DE LA CRUZ, F., GRAL. AV.&&PAZOS, JOSE",-34.6460562409,-58.4263693958,0
11824,"FAMATINA&&PEPIRI",-34.6461786861,-58.409471401,0
11828,"CALIFORNIA&&JOVELLANOS, GASPAR M. DE",-34.6461620688,-58.3708460776,0
11833,"RIESTRA AV.&&VEDIA, AGUSTIN DE",-34.6462352935,-58.4349243391,0
11839,"BRUIX AV.",-34.6463246338,-58.4895950693,0
11840,"DEKAY&&TROLE",-34.6463235002,-58.4184041687,0
11842,"ALBERDI, JUAN BAUTISTA AV.&&BASUALDO",-34.6463349135,-58.4967864573,0
11843,"DEKAY&&QUILMES",-34.6463354514,-58.41740258,0
11847,"DEKAY&&SAENZ AV.",-34.646350123,-58.4161720247,0
11857,"ALVARADO&&VIEYTES",-34.6463924402,-58.3782230564,0
11858,"CALIFORNIA&&ISABEL LA CATOLICA",-34.6463881426,-58.3718946167,0
11862,"ALVAREZ, CRISOSTOMO&&LAFUENTE AV.",-34.6464554086,-58.4586302881,0
11879,"ACOSTA, MARIANO&&FECUNDIDAD",-34.6465543317,-58.4664337663,0
11880,"ACOSTA, MARIANO AV.&&PERON, EVA AV.",-34.6460222663,-58.4670997611,0
11888,"ALVARADO&&SAN ANTONIO",-34.6466020575,-58.3790898773,0
11900,"BOQUERON&&MONTIEL",-34.6466812463,-58.5259330669,0
11911,"AUSTRALIA AV.&&LUZURIAGA",-34.6467401787,-58.3877219269,0
